[{
	"latitude" : 31.511301,
	"longitude" : 104.724088,
	"routes_id" : "33,408,7,8,23,38,27,436",
	"routes_number" : 8.0,
	"station_id" : "10010011",
	"station_name" : "圣水寺",
	"sub_routes_id" : "23001,7001,8001,40801,27001,43601,33001,38001",
	"sub_routes_number" : 8.0
},
{
	"latitude" : 31.512315,
	"longitude" : 104.722874,
	"routes_id" : "33,408,7,8,23,38,27,436",
	"routes_number" : 8.0,
	"station_id" : "10010012",
	"station_name" : "圣水寺",
	"sub_routes_id" : "23001,7001,8001,40801,27001,43601,33001,38001",
	"sub_routes_number" : 8.0
},
{
	"latitude" : 31.506656,
	"longitude" : 104.728212,
	"routes_id" : "33,408,7,8,23,38,27,436",
	"routes_number" : 8.0,
	"station_id" : "10010021",
	"station_name" : "圣水七队",
	"sub_routes_id" : "23001,7001,8001,40801,27001,43601,33001,38001",
	"sub_routes_number" : 8.0
},
{
	"latitude" : 31.506723,
	"longitude" : 104.727772,
	"routes_id" : "33,408,7,8,23,38,27,436",
	"routes_number" : 8.0,
	"station_id" : "10010022",
	"station_name" : "圣水七队",
	"sub_routes_id" : "23001,7001,8001,40801,27001,43601,33001,38001",
	"sub_routes_number" : 8.0
},
{
	"latitude" : 31.502353,
	"longitude" : 104.731959,
	"routes_id" : "33,408,7,8,23,38,27",
	"routes_number" : 7.0,
	"station_id" : "10010031",
	"station_name" : "高水八队",
	"sub_routes_id" : "23001,7001,8001,40801,27001,33001,38001",
	"sub_routes_number" : 7.0
},
{
	"latitude" : 31.503557,
	"longitude" : 104.730537,
	"routes_id" : "33,408,7,8,23,38,27",
	"routes_number" : 7.0,
	"station_id" : "10010032",
	"station_name" : "高水八队",
	"sub_routes_id" : "23001,7001,8001,40801,27001,33001,38001",
	"sub_routes_number" : 7.0
},
{
	"latitude" : 31.499218,
	"longitude" : 104.733478,
	"routes_id" : "33,408,7,8,23,38,27",
	"routes_number" : 7.0,
	"station_id" : "10010041",
	"station_name" : "绵州汽配市场",
	"sub_routes_id" : "23001,7001,8001,40801,27001,33001,38001",
	"sub_routes_number" : 7.0
},
{
	"latitude" : 31.500348,
	"longitude" : 104.732721,
	"routes_id" : "33,408,7,8,23,38,27",
	"routes_number" : 7.0,
	"station_id" : "10010042",
	"station_name" : "绵州汽配市场",
	"sub_routes_id" : "23001,7001,8001,40801,27001,33001,38001",
	"sub_routes_number" : 7.0
},
{
	"latitude" : 31.495005,
	"longitude" : 104.735274,
	"routes_id" : "33,408,7,8,23,38,73",
	"routes_number" : 7.0,
	"station_id" : "10010051",
	"station_name" : "高水",
	"sub_routes_id" : "23001,7001,8001,40801,33001,38001,73001",
	"sub_routes_number" : 7.0
},
{
	"latitude" : 31.496073,
	"longitude" : 104.734434,
	"routes_id" : "33,408,7,8,23,38,73",
	"routes_number" : 7.0,
	"station_id" : "10010052",
	"station_name" : "高水",
	"sub_routes_id" : "23001,7001,8001,40801,33001,38001,73001",
	"sub_routes_number" : 7.0
},
{
	"latitude" : 31.487606,
	"longitude" : 104.736709,
	"routes_id" : "33,408,7,8,23,38,73",
	"routes_number" : 7.0,
	"station_id" : "10010061",
	"station_name" : "平政村",
	"sub_routes_id" : "23001,7001,8001,40801,33001,38001,73001",
	"sub_routes_number" : 7.0
},
{
	"latitude" : 31.489309,
	"longitude" : 104.736434,
	"routes_id" : "33,408,7,8,23,38,73",
	"routes_number" : 7.0,
	"station_id" : "10010062",
	"station_name" : "平政村",
	"sub_routes_id" : "23001,7001,8001,40801,33001,38001,73001",
	"sub_routes_number" : 7.0
},
{
	"latitude" : 31.481687,
	"longitude" : 104.735415,
	"routes_id" : "80,33,59,408,7,95,8,23,97,38,73",
	"routes_number" : 11.0,
	"station_id" : "10010071",
	"station_name" : "平政桥",
	"sub_routes_id" : "23001,7001,97001,95001,80001,8001,40801,33001,59001,38001,73001",
	"sub_routes_number" : 11.0
},
{
	"latitude" : 31.483633,
	"longitude" : 104.735924,
	"routes_id" : "80,33,59,408,7,95,8,23,97,38,73",
	"routes_number" : 11.0,
	"station_id" : "10010072",
	"station_name" : "平政桥",
	"sub_routes_id" : "23001,7001,97001,95001,80001,8001,40801,33001,59001,38001,73001",
	"sub_routes_number" : 11.0
},
{
	"latitude" : 31.474563,
	"longitude" : 104.735407,
	"routes_id" : "80,33,408,95,8,97,38,60,77,19,1",
	"routes_number" : 11.0,
	"station_id" : "10010081",
	"station_name" : "图书馆",
	"sub_routes_id" : "97001,95001,80001,8001,77001,1001,40801,19001,33001,38001,60001",
	"sub_routes_number" : 11.0
},
{
	"latitude" : 31.465256,
	"longitude" : 104.743773,
	"routes_id" : "801,43",
	"routes_number" : 2.0,
	"station_id" : "10020073",
	"station_name" : "人民公园",
	"sub_routes_id" : "801001,43001",
	"sub_routes_number" : 2.0
},
{
	"latitude" : 31.476491,
	"longitude" : 104.735255,
	"routes_id" : "80,33,408,7,95,8,23,97,38,60,73,19,1",
	"routes_number" : 13.0,
	"station_id" : "10010082",
	"station_name" : "图书馆",
	"sub_routes_id" : "23001,7001,97001,95001,80001,8001,1001,40801,19001,33001,38001,60001,73001",
	"sub_routes_number" : 13.0
},
{
	"latitude" : 31.471506,
	"longitude" : 104.735441,
	"routes_id" : "80,33,408,95,8,97,38,60,77,19,1",
	"routes_number" : 11.0,
	"station_id" : "10010091",
	"station_name" : "长虹国际城西站",
	"sub_routes_id" : "97001,95001,80001,8001,77001,1001,40801,19001,33001,38001,60001",
	"sub_routes_number" : 11.0
},
{
	"latitude" : 31.472234,
	"longitude" : 104.735461,
	"routes_id" : "80,33,408,95,48,8,514,97,25,38,60,26,19,1,67",
	"routes_number" : 15.0,
	"station_id" : "10010092",
	"station_name" : "长虹国际城西站",
	"sub_routes_id" : "26001,95001,60001,80001,67001,38001,97001,48001,19001,2511,2512,33001,1001,14001,2501,14002,24001,2502,24002,2503,2504,2505,8001,2506,2507,40801",
	"sub_routes_number" : 26.0
},
{
	"latitude" : 31.467252,
	"longitude" : 104.735567,
	"routes_id" : "80,33,95,35,235,38,60,13,39,66,19,44",
	"routes_number" : 12.0,
	"station_id" : "10010101",
	"station_name" : "市肿瘤医院",
	"sub_routes_id" : "44001,95001,13001,39001,13002,13003,66002,80001,35001,23501,19001,33001,38001,60001",
	"sub_routes_number" : 14.0
},
{
	"latitude" : 31.469025,
	"longitude" : 104.735612,
	"routes_id" : "45,33,408,35,8,235,13,26,61,28,63,66,19,90,3,44",
	"routes_number" : 16.0,
	"station_id" : "10010102",
	"station_name" : "市肿瘤医院",
	"sub_routes_id" : "3001,26001,66002,90001,61001,28001,28002,28003,23501,28004,28005,28006,19001,13001,13002,13003,33001,63001,63002,63003,63004,44001,8001,40801,35001,45001",
	"sub_routes_number" : 26.0
},
{
	"latitude" : 31.462342,
	"longitude" : 104.736401,
	"routes_id" : "5,100,33,21,807,61,63,53,19,90,44,92",
	"routes_number" : 12.0,
	"station_id" : "10010111",
	"station_name" : "安昌桥",
	"sub_routes_id" : "44001,92001,63001,63002,90001,21001,5001,63003,61001,63004,807001,100001,19001,33001,5302",
	"sub_routes_number" : 15.0
},
{
	"latitude" : 31.463072,
	"longitude" : 104.736058,
	"routes_id" : "5,100,33,807,61,63,53,19",
	"routes_number" : 8.0,
	"station_id" : "10010112",
	"station_name" : "安昌桥",
	"sub_routes_id" : "63001,63002,5001,63003,61001,63004,807001,100001,19001,33001,5302",
	"sub_routes_number" : 11.0
},
{
	"latitude" : 31.456313,
	"longitude" : 104.738274,
	"routes_id" : "5,100,33,807,61,63,53,19",
	"routes_number" : 8.0,
	"station_id" : "10010121",
	"station_name" : "御营坝",
	"sub_routes_id" : "63001,63002,5001,63003,61001,63004,807001,100001,19001,33001,5302",
	"sub_routes_number" : 11.0
},
{
	"latitude" : 31.457474,
	"longitude" : 104.737588,
	"routes_id" : "5,100,33,46,807,53,19",
	"routes_number" : 7.0,
	"station_id" : "10010122",
	"station_name" : "御营坝",
	"sub_routes_id" : "5001,807001,100001,19001,33001,46001,5302",
	"sub_routes_number" : 7.0
},
{
	"latitude" : 31.453479,
	"longitude" : 104.741569,
	"routes_id" : "100,2001,33,807,61,74,63,40,53,19",
	"routes_number" : 10.0,
	"station_id" : "10010131",
	"station_name" : "饮马大桥",
	"sub_routes_id" : "20003,63001,63002,63003,61001,63004,74001,40001,807001,100001,19001,33001,20002,5302",
	"sub_routes_number" : 14.0
},
{
	"latitude" : 31.453531,
	"longitude" : 104.740865,
	"routes_id" : "5,100,33,46,807,53,19",
	"routes_number" : 7.0,
	"station_id" : "10010132",
	"station_name" : "饮马大桥",
	"sub_routes_id" : "5001,807001,100001,19001,33001,46001,5302",
	"sub_routes_number" : 7.0
},
{
	"latitude" : 31.447785,
	"longitude" : 104.744802,
	"routes_id" : "100,807,16,40,53,19",
	"routes_number" : 6.0,
	"station_id" : "10010141",
	"station_name" : "代家湾",
	"sub_routes_id" : "40001,807001,16001,100001,19001,5302",
	"sub_routes_number" : 6.0
},
{
	"latitude" : 31.448854,
	"longitude" : 104.744197,
	"routes_id" : "5,100,34,807,16,64,53,19",
	"routes_number" : 8.0,
	"station_id" : "10010142",
	"station_name" : "代家湾",
	"sub_routes_id" : "34001,5001,807001,16001,64001,100001,19001,5302",
	"sub_routes_number" : 8.0
},
{
	"latitude" : 31.445248,
	"longitude" : 104.749663,
	"routes_id" : "100,807,16,40,53,19,42",
	"routes_number" : 7.0,
	"station_id" : "10010151",
	"station_name" : "高架桥",
	"sub_routes_id" : "42001,40001,807001,16001,100001,19001,5302",
	"sub_routes_number" : 7.0
},
{
	"latitude" : 31.445115,
	"longitude" : 104.748802,
	"routes_id" : "100,807,16,40,53,19,42",
	"routes_number" : 7.0,
	"station_id" : "10010152",
	"station_name" : "高架桥",
	"sub_routes_id" : "42002,40001,807001,16001,100001,19001,5302",
	"sub_routes_number" : 7.0
},
{
	"latitude" : 31.445685,
	"longitude" : 104.751771,
	"routes_id" : "58,100,48,807,328,9,28,16,40,19,42,4",
	"routes_number" : 12.0,
	"station_id" : "10010161",
	"station_name" : "南山加气站",
	"sub_routes_id" : "28001,28002,28003,42002,28004,28005,40001,28006,58001,807001,16001,100001,32801,48001,19001,4001,9001",
	"sub_routes_number" : 17.0
},
{
	"latitude" : 31.445628,
	"longitude" : 104.752961,
	"routes_id" : "58,6,48,328,9,28,4",
	"routes_number" : 7.0,
	"station_id" : "10010162",
	"station_name" : "南山加气站",
	"sub_routes_id" : "9002,28001,28002,28003,28004,28005,28006,58001,32801,48001,6001,4001",
	"sub_routes_number" : 12.0
},
{
	"latitude" : 31.446001,
	"longitude" : 104.755547,
	"routes_id" : "58,100,48,807,328,9,28,40,53,19,4",
	"routes_number" : 11.0,
	"station_id" : "10010171",
	"station_name" : "南山寺",
	"sub_routes_id" : "28001,28002,28003,28004,28005,40001,28006,58001,807001,100001,32801,48001,19001,4001,5301,5302,9001",
	"sub_routes_number" : 17.0
},
{
	"latitude" : 31.446351,
	"longitude" : 104.756429,
	"routes_id" : "58,100,6,48,328,9,28,40,53,19,4",
	"routes_number" : 11.0,
	"station_id" : "10010172",
	"station_name" : "南山寺",
	"sub_routes_id" : "9002,28001,28002,28003,28004,28005,40001,28006,58001,100001,32801,48001,6001,19001,4001,5301,5302",
	"sub_routes_number" : 17.0
},
{
	"latitude" : 31.444822,
	"longitude" : 104.763054,
	"routes_id" : "58,100,48,807,328,9,28,40,19,4",
	"routes_number" : 10.0,
	"station_id" : "10010181",
	"station_name" : "长虹大道南段",
	"sub_routes_id" : "28001,28002,28003,28004,28005,40001,28006,58001,807001,100001,32801,48001,19001,4001,9001",
	"sub_routes_number" : 15.0
},
{
	"latitude" : 31.444503,
	"longitude" : 104.763694,
	"routes_id" : "58,100,6,48,328,9,28,40,19,4",
	"routes_number" : 10.0,
	"station_id" : "10010182",
	"station_name" : "长虹大道南段",
	"sub_routes_id" : "9002,28001,28002,28003,28004,28005,40001,28006,58001,100001,32801,48001,6001,19001,4001",
	"sub_routes_number" : 15.0
},
{
	"latitude" : 31.458769,
	"longitude" : 104.709111,
	"routes_id" : "53,57,91,80,21,37,39,801,85,70,601,12,806,807,15,102,104,2001",
	"routes_number" : 18.0,
	"station_id" : "10020013",
	"station_name" : "花园市场",
	"sub_routes_id" : "10201,15006,15007,85001,20002,20003,60101,70001,21001,37001,80001,5302,57002,12003,91001,39001,806001,807001,801001,15001,15002,15003,10401,15004,15005",
	"sub_routes_number" : 25.0
},
{
	"latitude" : 31.458894,
	"longitude" : 104.708059,
	"routes_id" : "2001,102,70,104,37,85,12,39,15,53,601,801,3,91,57",
	"routes_number" : 15.0,
	"station_id" : "10020014",
	"station_name" : "花园市场",
	"sub_routes_id" : "10201,15006,3001,15007,85001,20002,20003,60101,70001,37001,57001,5302,12003,91001,39001,801001,15001,15002,15003,10401,15004,15005",
	"sub_routes_number" : 22.0
},
{
	"latitude" : 31.459278,
	"longitude" : 104.712854,
	"routes_id" : "80,2001,805,21,806,102,807,10,71,12,39,74,15,53,601,801,3",
	"routes_number" : 17.0,
	"station_id" : "10020023",
	"station_name" : "火车客站",
	"sub_routes_id" : "10201,15006,3001,15007,10001,10002,20002,20003,60101,21001,80001,5302,12001,71001,12003,805001,39001,806001,807001,801001,15001,74001,15002,15003,15004,15005",
	"sub_routes_number" : 26.0
},
{
	"latitude" : 31.459649,
	"longitude" : 104.712955,
	"routes_id" : "80,2001,21,806,102,807,10,71,39,15,53,601,801,3",
	"routes_number" : 14.0,
	"station_id" : "10020024",
	"station_name" : "火车客站",
	"sub_routes_id" : "10201,15006,3001,15007,10001,10002,20002,20003,60101,21001,80001,5302,71001,39001,806001,807001,801001,15001,15002,15003,15004,15005",
	"sub_routes_number" : 22.0
},
{
	"latitude" : 31.459967,
	"longitude" : 104.716731,
	"routes_id" : "80,100,21,102,35,807,10,328,235,38,60,39,62,15,29,3",
	"routes_number" : 16.0,
	"station_id" : "10020033",
	"station_name" : "临园路西段",
	"sub_routes_id" : "10201,15006,15007,3001,10001,10002,60001,32801,21001,80001,38001,23501,62001,29001,62002,39001,62003,100001,807001,15001,15002,15003,35001,15004,15005",
	"sub_routes_number" : 25.0
},
{
	"latitude" : 31.461857,
	"longitude" : 104.722473,
	"routes_id" : "53,235,35,21,80,38,39,328,801,10,71,29,3,100,15,807,102,60,62",
	"routes_number" : 19.0,
	"station_id" : "10020043",
	"station_name" : "花园小区",
	"sub_routes_id" : "10201,15006,15007,3001,10001,10002,60001,32801,21001,80001,5302,71001,38001,23501,62001,29001,62002,39001,62003,100001,807001,801001,15001,15002,15003,35001,15004,15005",
	"sub_routes_number" : 28.0
},
{
	"latitude" : 31.462606,
	"longitude" : 104.724424,
	"routes_id" : "53,235,35,21,80,38,39,328,801,10,71,29,3,100,15,807,102,60,62",
	"routes_number" : 19.0,
	"station_id" : "10020044",
	"station_name" : "花园小区",
	"sub_routes_id" : "10201,15006,15007,3001,10001,10002,60001,32801,21001,80001,5302,71001,38001,23501,62001,29001,62002,39001,62003,100001,807001,801001,15001,15002,15003,35001,15004,15005",
	"sub_routes_number" : 28.0
},
{
	"latitude" : 31.463877,
	"longitude" : 104.729787,
	"routes_id" : "53,235,35,21,80,38,39,328,801,10,71,29,3,100,807,15,102,60",
	"routes_number" : 18.0,
	"station_id" : "10020053",
	"station_name" : "七星楼",
	"sub_routes_id" : "10201,15006,15007,3001,10001,10002,60001,32801,21001,80001,5302,71001,38001,23501,29001,39001,100001,807001,801001,15001,15002,15003,35001,15004,15005",
	"sub_routes_number" : 25.0
},
{
	"latitude" : 31.465042,
	"longitude" : 104.732971,
	"routes_id" : "45,100,21,102,35,807,10,328,71,11,235,39,15,29,53,90,3",
	"routes_number" : 17.0,
	"station_id" : "10020054",
	"station_name" : "七星楼",
	"sub_routes_id" : "10201,15006,15007,3001,10001,10002,11001,32801,21001,11002,90001,5302,71001,23501,29001,39001,100001,807001,15001,15002,15003,35001,15004,45001,15005",
	"sub_routes_number" : 25.0
},
{
	"latitude" : 31.46518,
	"longitude" : 104.739521,
	"routes_id" : "5,102,10,328,71,13,26,15,28,29,66,801,90,3,92",
	"routes_number" : 15.0,
	"station_id" : "10020063",
	"station_name" : "富乐路口凯德广场",
	"sub_routes_id" : "10201,15006,15007,3001,10001,26001,10002,66002,32801,90001,5001,28001,71001,28002,28003,28004,28005,28006,13001,29001,13002,13003,92001,801001,15001,15002,15003,15004,15005",
	"sub_routes_number" : 29.0
},
{
	"latitude" : 31.46543,
	"longitude" : 104.739051,
	"routes_id" : "5,95,102,10,328,13,15,66",
	"routes_number" : 8.0,
	"station_id" : "10020064",
	"station_name" : "富乐路口凯德广场",
	"sub_routes_id" : "10001,10201,10002,15001,15002,15003,5001,95001,13001,15004,13002,15005,13003,15006,66002,15007,32801",
	"sub_routes_number" : 17.0
},
{
	"latitude" : 31.4652,
	"longitude" : 104.746671,
	"routes_id" : "5,6,102,10,328,13,26,15,28,29,53,66,92",
	"routes_number" : 13.0,
	"station_id" : "10020093",
	"station_name" : "汉龙桥",
	"sub_routes_id" : "10201,15006,15007,10001,26001,10002,66002,32801,5301,5001,28001,28002,28003,28004,28005,28006,6001,13001,29001,13002,13003,92001,15001,15002,15003,15004,15005",
	"sub_routes_number" : 27.0
},
{
	"latitude" : 31.465221,
	"longitude" : 104.746511,
	"routes_id" : "5,6,10,328,26,28,29,53,66,546",
	"routes_number" : 10.0,
	"station_id" : "10020094",
	"station_name" : "汉龙桥",
	"sub_routes_id" : "54601,10001,10002,28001,28002,28003,5001,26001,28004,28005,28006,66002,29001,32801,6001,5301",
	"sub_routes_number" : 16.0
},
{
	"latitude" : 31.464957,
	"longitude" : 104.749093,
	"routes_id" : "32,58,5,59,36,71,26,436,28,29,51,53,66,532,92",
	"routes_number" : 15.0,
	"station_id" : "10020103",
	"station_name" : "临园口",
	"sub_routes_id" : "26001,36001,66002,5301,51001,5001,28001,71001,28002,28003,32001,28004,58001,43601,28005,28006,29001,53201,92001,59001",
	"sub_routes_number" : 20.0
},
{
	"latitude" : 31.464989,
	"longitude" : 104.750115,
	"routes_id" : "58,59,408,22,8,71,26,28,29,52,53,66,68",
	"routes_number" : 13.0,
	"station_id" : "10020104",
	"station_name" : "临园口",
	"sub_routes_id" : "26001,66002,5301,71001,28001,28002,22001,28003,28004,58001,52001,68001,28005,28006,29001,59001,8001,40801",
	"sub_routes_number" : 18.0
},
{
	"latitude" : 31.464709,
	"longitude" : 104.750069,
	"routes_id" : "801",
	"routes_number" : 1.0,
	"station_id" : "10020113",
	"station_name" : "步行街",
	"sub_routes_id" : "801001",
	"sub_routes_number" : 1.0
},
{
	"latitude" : 31.463331,
	"longitude" : 104.752421,
	"routes_id" : "32,58,5,59,36,71,26,436,28,29,51,53,66,532,92",
	"routes_number" : 15.0,
	"station_id" : "10020123",
	"station_name" : "顺河街",
	"sub_routes_id" : "26001,36001,66002,5301,51001,5001,28001,71001,28002,28003,32001,28004,58001,43601,28005,28006,29001,53201,92001,59001",
	"sub_routes_number" : 20.0
},
{
	"latitude" : 31.462232,
	"longitude" : 104.753112,
	"routes_id" : "58,59,408,22,8,71,26,28,29,52,53,66,68",
	"routes_number" : 13.0,
	"station_id" : "10020124",
	"station_name" : "顺河街",
	"sub_routes_id" : "26001,66002,5301,71001,28001,28002,22001,28003,28004,58001,52001,68001,28005,28006,29001,59001,8001,40801",
	"sub_routes_number" : 18.0
},
{
	"latitude" : 31.461291,
	"longitude" : 104.719924,
	"routes_id" : "80,100,21,102,35,807,10,328,235,38,60,39,62,15,29,3",
	"routes_number" : 16.0,
	"station_id" : "10021034",
	"station_name" : "临园路西段",
	"sub_routes_id" : "10201,15006,15007,3001,10001,10002,60001,32801,21001,80001,38001,23501,62001,29001,62002,39001,62003,100001,807001,15001,15002,15003,35001,15004,15005",
	"sub_routes_number" : 25.0
},
{
	"latitude" : 31.486654,
	"longitude" : 104.731252,
	"routes_id" : "59,95,75",
	"routes_number" : 3.0,
	"station_id" : "10030011",
	"station_name" : "绵州美家居装饰城",
	"sub_routes_id" : "95001,75001,59001",
	"sub_routes_number" : 3.0
},
{
	"latitude" : 31.486984,
	"longitude" : 104.732205,
	"routes_id" : "59,95,75",
	"routes_number" : 3.0,
	"station_id" : "10030012",
	"station_name" : "绵州美家居装饰城",
	"sub_routes_id" : "95001,75001,59001",
	"sub_routes_number" : 3.0
},
{
	"latitude" : 31.486786,
	"longitude" : 104.734655,
	"routes_id" : "59,95,75",
	"routes_number" : 3.0,
	"station_id" : "10030021",
	"station_name" : "五幢楼",
	"sub_routes_id" : "95001,75001,59001",
	"sub_routes_number" : 3.0
},
{
	"latitude" : 31.487028,
	"longitude" : 104.736408,
	"routes_id" : "59,95,75,42",
	"routes_number" : 4.0,
	"station_id" : "10030022",
	"station_name" : "五幢楼",
	"sub_routes_id" : "42002,95001,75001,59001",
	"sub_routes_number" : 4.0
},
{
	"latitude" : 31.487996,
	"longitude" : 104.760831,
	"routes_id" : "80,97,75,42,69",
	"routes_number" : 5.0,
	"station_id" : "10030031",
	"station_name" : "六里村（中经路）",
	"sub_routes_id" : "97001,42001,80001,69001,75001",
	"sub_routes_number" : 5.0
},
{
	"latitude" : 31.488245,
	"longitude" : 104.763275,
	"routes_id" : "80,97,75,42,69",
	"routes_number" : 5.0,
	"station_id" : "10030032",
	"station_name" : "六里村（中经路）",
	"sub_routes_id" : "97001,42002,80001,69001,75001",
	"sub_routes_number" : 5.0
},
{
	"latitude" : 31.487931,
	"longitude" : 104.768273,
	"routes_id" : "42,69",
	"routes_number" : 2.0,
	"station_id" : "10030041",
	"station_name" : "一环路北段",
	"sub_routes_id" : "42001,69001",
	"sub_routes_number" : 2.0
},
{
	"latitude" : 31.488082,
	"longitude" : 104.768973,
	"routes_id" : "75,42,69",
	"routes_number" : 3.0,
	"station_id" : "10030042",
	"station_name" : "一环路北段",
	"sub_routes_id" : "42002,69001,75001",
	"sub_routes_number" : 3.0
},
{
	"latitude" : 31.483383,
	"longitude" : 104.768515,
	"routes_id" : "93,22,514,98,50,29,51,42,69",
	"routes_number" : 9.0,
	"station_id" : "10030051",
	"station_name" : "富乐汽车站（仙海大道）",
	"sub_routes_id" : "50001,42001,50002,93001,24001,98001,29001,24002,51001,69001,22001",
	"sub_routes_number" : 11.0
},
{
	"latitude" : 31.483879,
	"longitude" : 104.768794,
	"routes_id" : "58,93,20,22,514,84,98,75,50,76,29,51,42,801,3,69",
	"routes_number" : 16.0,
	"station_id" : "10030052",
	"station_name" : "富乐汽车站（仙海大道）",
	"sub_routes_id" : "3001,75001,50001,76001,50002,51001,22001,58001,42002,29001,98001,200001,200002,69001,24001,24002,93001,801001,84001",
	"sub_routes_number" : 19.0
},
{
	"latitude" : 31.480352,
	"longitude" : 104.768764,
	"routes_id" : "58,93,20,22,514,84,98,75,50,76,29,51,42,3,69",
	"routes_number" : 15.0,
	"station_id" : "10030062",
	"station_name" : "仙人桥",
	"sub_routes_id" : "3001,75001,50001,76001,50002,51001,22001,58001,42002,29001,98001,200001,200002,69001,24001,93001,24002,84001",
	"sub_routes_number" : 18.0
},
{
	"latitude" : 31.479319,
	"longitude" : 104.768071,
	"routes_id" : "69,546,58,42,46,92,93,20,21,22,98,514,801,72,29,3,75,17,50,51",
	"routes_number" : 20.0,
	"station_id" : "10030071",
	"station_name" : "公汽司加油站",
	"sub_routes_id" : "3001,75001,46001,50001,17001,50002,17002,21001,51001,22001,42001,58001,29001,72001,98001,200001,92001,200002,54601,69001,14001,24001,14002,24002,93001,801001",
	"sub_routes_number" : 26.0
},
{
	"latitude" : 31.476636,
	"longitude" : 104.767293,
	"routes_id" : "69,546,58,42,46,92,93,20,22,98,514,801,29,3,75,17,50,51",
	"routes_number" : 18.0,
	"station_id" : "10030072",
	"station_name" : "公汽司加油站",
	"sub_routes_id" : "3001,75001,46001,50001,17001,50002,17002,51001,22001,58001,42002,29001,98001,200001,92001,200002,54601,69001,14001,24001,14002,24002,93001,801001",
	"sub_routes_number" : 24.0
},
{
	"latitude" : 31.480352,
	"longitude" : 104.768764,
	"routes_id" : "46,514,17,546,92",
	"routes_number" : 5.0,
	"station_id" : "10030081",
	"station_name" : "仙人桥",
	"sub_routes_id" : "17001,54601,17002,92001,14001,14002,46001",
	"sub_routes_number" : 7.0
},
{
	"latitude" : 31.473307,
	"longitude" : 104.765616,
	"routes_id" : "93,21,72,98,75,50,17,42,801,92",
	"routes_number" : 10.0,
	"station_id" : "10030082",
	"station_name" : "芙蓉桥",
	"sub_routes_id" : "17001,801001,92001,50001,50002,21001,42002,93001,72001,98001,75001",
	"sub_routes_number" : 11.0
},
{
	"latitude" : 31.46792,
	"longitude" : 104.766223,
	"routes_id" : "69,42,532,44,46,31,32,92,21,22,26,12,72,29,75,17,50,51",
	"routes_number" : 18.0,
	"station_id" : "10030091",
	"station_name" : "海棕路",
	"sub_routes_id" : "75001,26001,46001,50001,50002,17002,21001,31001,51001,22001,32001,12004,42001,12005,29001,72001,53201,92001,69001,44001",
	"sub_routes_number" : 20.0
},
{
	"latitude" : 31.467323,
	"longitude" : 104.766123,
	"routes_id" : "32,21,72,26,75,50,17,532,42,801,44,92",
	"routes_number" : 12.0,
	"station_id" : "10030092",
	"station_name" : "海棕路",
	"sub_routes_id" : "17001,801001,44001,92001,50001,50002,21001,42002,26001,32001,53201,72001,75001",
	"sub_routes_number" : 13.0
},
{
	"latitude" : 31.459786,
	"longitude" : 104.757756,
	"routes_id" : "72,75,50,42",
	"routes_number" : 4.0,
	"station_id" : "10030101",
	"station_name" : "富乐大桥",
	"sub_routes_id" : "50001,42001,50002,72001,75001",
	"sub_routes_number" : 5.0
},
{
	"latitude" : 31.457306,
	"longitude" : 104.757522,
	"routes_id" : "72,75,42",
	"routes_number" : 3.0,
	"station_id" : "10030102",
	"station_name" : "富乐大桥",
	"sub_routes_id" : "42002,72001,75001",
	"sub_routes_number" : 3.0
},
{
	"latitude" : 31.458298,
	"longitude" : 104.752778,
	"routes_id" : "50",
	"routes_number" : 1.0,
	"station_id" : "10030106",
	"station_name" : "红星街50路主上",
	"sub_routes_id" : "50001,50002",
	"sub_routes_number" : 2.0
},
{
	"latitude" : 31.45516,
	"longitude" : 104.757513,
	"routes_id" : "59,71,75,42",
	"routes_number" : 4.0,
	"station_id" : "10030111",
	"station_name" : "南街口",
	"sub_routes_id" : "71001,42001,75001,59001",
	"sub_routes_number" : 4.0
},
{
	"latitude" : 31.453769,
	"longitude" : 104.757582,
	"routes_id" : "59,75,16,42",
	"routes_number" : 4.0,
	"station_id" : "10030112",
	"station_name" : "南街口",
	"sub_routes_id" : "42002,16001,75001,59001",
	"sub_routes_number" : 4.0
},
{
	"latitude" : 31.464601,
	"longitude" : 104.760632,
	"routes_id" : "12,31",
	"routes_number" : 2.0,
	"station_id" : "10030122",
	"station_name" : "韩家脊",
	"sub_routes_id" : "31001,12004,12005",
	"sub_routes_number" : 3.0
},
{
	"latitude" : 31.449919,
	"longitude" : 104.760495,
	"routes_id" : "59,6,94,10,75,16,42",
	"routes_number" : 7.0,
	"station_id" : "10030123",
	"station_name" : "南山大桥",
	"sub_routes_id" : "10001,10002,42001,42002,16001,6001,75001,59001,94001",
	"sub_routes_number" : 9.0
},
{
	"latitude" : 31.450746,
	"longitude" : 104.761011,
	"routes_id" : "94,10,75,16",
	"routes_number" : 4.0,
	"station_id" : "10030124",
	"station_name" : "南山大桥",
	"sub_routes_id" : "10001,16001,75001,94001",
	"sub_routes_number" : 4.0
},
{
	"latitude" : 31.447631,
	"longitude" : 104.741591,
	"routes_id" : "5,64,42",
	"routes_number" : 3.0,
	"station_id" : "10030131",
	"station_name" : "一环路南段",
	"sub_routes_id" : "42001,5001,64001",
	"sub_routes_number" : 3.0
},
{
	"latitude" : 31.447573,
	"longitude" : 104.741071,
	"routes_id" : "40,42",
	"routes_number" : 2.0,
	"station_id" : "10030132",
	"station_name" : "一环路南段",
	"sub_routes_id" : "42002,40001",
	"sub_routes_number" : 2.0
},
{
	"latitude" : 31.453556,
	"longitude" : 104.738782,
	"routes_id" : "5",
	"routes_number" : 1.0,
	"station_id" : "10030142",
	"station_name" : "绵绢路",
	"sub_routes_id" : "5001",
	"sub_routes_number" : 1.0
},
{
	"latitude" : 31.455653,
	"longitude" : 104.730725,
	"routes_id" : "62,42",
	"routes_number" : 2.0,
	"station_id" : "10030151",
	"station_name" : "公汽司加气站",
	"sub_routes_id" : "42001,62001,62002,62003",
	"sub_routes_number" : 4.0
},
{
	"latitude" : 31.456023,
	"longitude" : 104.72937,
	"routes_id" : "62,42",
	"routes_number" : 2.0,
	"station_id" : "10030152",
	"station_name" : "公汽司加气站",
	"sub_routes_id" : "42002,62001,62002,62003",
	"sub_routes_number" : 4.0
},
{
	"latitude" : 31.463739,
	"longitude" : 104.727063,
	"routes_id" : "42",
	"routes_number" : 1.0,
	"station_id" : "10030161",
	"station_name" : "三汇立交桥",
	"sub_routes_id" : "42001",
	"sub_routes_number" : 1.0
},
{
	"latitude" : 31.465816,
	"longitude" : 104.726187,
	"routes_id" : "42",
	"routes_number" : 1.0,
	"station_id" : "10030162",
	"station_name" : "三汇立交桥",
	"sub_routes_id" : "42002",
	"sub_routes_number" : 1.0
},
{
	"latitude" : 31.472305,
	"longitude" : 104.729625,
	"routes_id" : "42",
	"routes_number" : 1.0,
	"station_id" : "10030171",
	"station_name" : "先锋路口",
	"sub_routes_id" : "42001",
	"sub_routes_number" : 1.0
},
{
	"latitude" : 31.474143,
	"longitude" : 104.72981,
	"routes_id" : "48,67,42",
	"routes_number" : 3.0,
	"station_id" : "10030172",
	"station_name" : "先锋路口",
	"sub_routes_id" : "42002,48001,67001",
	"sub_routes_number" : 3.0
},
{
	"latitude" : 31.476679,
	"longitude" : 104.730168,
	"routes_id" : "42",
	"routes_number" : 1.0,
	"station_id" : "10030181",
	"station_name" : "火车货站",
	"sub_routes_id" : "42001",
	"sub_routes_number" : 1.0
},
{
	"latitude" : 31.478532,
	"longitude" : 104.729996,
	"routes_id" : "42",
	"routes_number" : 1.0,
	"station_id" : "10030182",
	"station_name" : "火车货站",
	"sub_routes_id" : "42002",
	"sub_routes_number" : 1.0
},
{
	"latitude" : 31.481721,
	"longitude" : 104.730309,
	"routes_id" : "20,60,19,1,42",
	"routes_number" : 5.0,
	"station_id" : "10030191",
	"station_name" : "西山立交桥",
	"sub_routes_id" : "42001,200001,200002,1001,19001,60001",
	"sub_routes_number" : 6.0
},
{
	"latitude" : 31.483485,
	"longitude" : 104.730393,
	"routes_id" : "42",
	"routes_number" : 1.0,
	"station_id" : "10030192",
	"station_name" : "西山立交桥",
	"sub_routes_id" : "42002",
	"sub_routes_number" : 1.0
},
{
	"latitude" : 31.453655,
	"longitude" : 104.733533,
	"routes_id" : "2001,9,40",
	"routes_number" : 3.0,
	"station_id" : "10030212",
	"station_name" : "招呼站(御营新城)",
	"sub_routes_id" : "20003,40001,20002,9001",
	"sub_routes_number" : 4.0
},
{
	"latitude" : 31.475341,
	"longitude" : 104.765687,
	"routes_id" : "58,20,46,22,514,75,50,29,51,17,52,67,546,68,801,3,69",
	"routes_number" : 17.0,
	"station_id" : "10030221",
	"station_name" : "芙蓉桥",
	"sub_routes_id" : "3001,75001,46001,50001,17001,50002,51001,67001,22001,58001,52001,68001,29001,200001,200002,54601,69001,14001,24001,14002,24002,801001",
	"sub_routes_number" : 22.0
},
{
	"latitude" : 31.472862,
	"longitude" : 104.763677,
	"routes_id" : "58,20,46,22,514,12,29,51,17,52,67,546,68,3,69",
	"routes_number" : 15.0,
	"station_id" : "10030222",
	"station_name" : "芙蓉桥",
	"sub_routes_id" : "3001,46001,17002,51001,67001,12001,22001,12003,58001,52001,68001,29001,200001,200002,54601,69001,14001,24001,14002,24002",
	"sub_routes_number" : 20.0
},
{
	"latitude" : 31.489221,
	"longitude" : 104.714991,
	"routes_id" : "75",
	"routes_number" : 1.0,
	"station_id" : "10040013",
	"station_name" : "中华坊",
	"sub_routes_id" : "75001",
	"sub_routes_number" : 1.0
},
{
	"latitude" : 31.489288,
	"longitude" : 104.715531,
	"routes_id" : "75",
	"routes_number" : 1.0,
	"station_id" : "10040014",
	"station_name" : "中华坊",
	"sub_routes_id" : "75001",
	"sub_routes_number" : 1.0
},
{
	"latitude" : 31.492516,
	"longitude" : 104.707233,
	"routes_id" : "75",
	"routes_number" : 1.0,
	"station_id" : "10040023",
	"station_name" : "九洲大道中段",
	"sub_routes_id" : "75001",
	"sub_routes_number" : 1.0
},
{
	"latitude" : 31.492624,
	"longitude" : 104.707932,
	"routes_id" : "75",
	"routes_number" : 1.0,
	"station_id" : "10040024",
	"station_name" : "九洲大道中段",
	"sub_routes_id" : "75001",
	"sub_routes_number" : 1.0
},
{
	"latitude" : 31.494721,
	"longitude" : 104.701649,
	"routes_id" : "37,13",
	"routes_number" : 2.0,
	"station_id" : "10040033",
	"station_name" : "科创园",
	"sub_routes_id" : "13001,13002,13003,37001",
	"sub_routes_number" : 4.0
},
{
	"latitude" : 31.494646,
	"longitude" : 104.700007,
	"routes_id" : "37",
	"routes_number" : 1.0,
	"station_id" : "10040034",
	"station_name" : "科创园",
	"sub_routes_id" : "37001",
	"sub_routes_number" : 1.0
},
{
	"latitude" : 31.495839,
	"longitude" : 104.690285,
	"routes_id" : "37,13",
	"routes_number" : 2.0,
	"station_id" : "10040043",
	"station_name" : "南山双语",
	"sub_routes_id" : "13001,13002,13003,37001",
	"sub_routes_number" : 4.0
},
{
	"latitude" : 31.496055,
	"longitude" : 104.691971,
	"routes_id" : "37,13",
	"routes_number" : 2.0,
	"station_id" : "10040044",
	"station_name" : "南山双语",
	"sub_routes_id" : "13001,13002,13003,37001",
	"sub_routes_number" : 4.0
},
{
	"latitude" : 31.498396,
	"longitude" : 104.676823,
	"routes_id" : "45,85,13,77",
	"routes_number" : 4.0,
	"station_id" : "10040053",
	"station_name" : "灵创科技园",
	"sub_routes_id" : "13001,13003,45001,85001,77001",
	"sub_routes_number" : 5.0
},
{
	"latitude" : 31.498909,
	"longitude" : 104.676699,
	"routes_id" : "45,85,13",
	"routes_number" : 3.0,
	"station_id" : "10040054",
	"station_name" : "灵创科技园",
	"sub_routes_id" : "13001,13003,45001,85001",
	"sub_routes_number" : 4.0
},
{
	"latitude" : 31.501282,
	"longitude" : 104.671162,
	"routes_id" : "45,85,13,77,601",
	"routes_number" : 5.0,
	"station_id" : "10040063",
	"station_name" : "九洲路口",
	"sub_routes_id" : "13001,13003,45001,60101,85001,77001",
	"sub_routes_number" : 6.0
},
{
	"latitude" : 31.501089,
	"longitude" : 104.671541,
	"routes_id" : "45,85,13,601",
	"routes_number" : 4.0,
	"station_id" : "10040064",
	"station_name" : "九洲路口",
	"sub_routes_id" : "13001,13003,45001,60101,85001",
	"sub_routes_number" : 5.0
},
{
	"latitude" : 31.504556,
	"longitude" : 104.665212,
	"routes_id" : "45,85,13,601,91",
	"routes_number" : 5.0,
	"station_id" : "10040073",
	"station_name" : "天生桥",
	"sub_routes_id" : "13001,13003,45001,60101,85001,91001",
	"sub_routes_number" : 6.0
},
{
	"latitude" : 31.503803,
	"longitude" : 104.666327,
	"routes_id" : "85,13",
	"routes_number" : 2.0,
	"station_id" : "10040074",
	"station_name" : "天生桥",
	"sub_routes_id" : "13001,13003,85001",
	"sub_routes_number" : 3.0
},
{
	"latitude" : 31.496565,
	"longitude" : 104.687441,
	"routes_id" : "45,85,13",
	"routes_number" : 3.0,
	"station_id" : "10040094",
	"station_name" : "广播电视台招呼站",
	"sub_routes_id" : "13001,13003,45001,85001",
	"sub_routes_number" : 4.0
},
{
	"latitude" : 31.525549,
	"longitude" : 104.702453,
	"routes_id" : "408,7,27",
	"routes_number" : 3.0,
	"station_id" : "10050011",
	"station_name" : "青义",
	"sub_routes_id" : "7001,40801,27001",
	"sub_routes_number" : 3.0
},
{
	"latitude" : 31.526334,
	"longitude" : 104.702472,
	"routes_id" : "408,7,27",
	"routes_number" : 3.0,
	"station_id" : "10050012",
	"station_name" : "青义",
	"sub_routes_id" : "7001,40801,27001",
	"sub_routes_number" : 3.0
},
{
	"latitude" : 31.537785,
	"longitude" : 104.703289,
	"routes_id" : "7,27",
	"routes_number" : 2.0,
	"station_id" : "10050031",
	"station_name" : "青羊村",
	"sub_routes_id" : "7001,27001",
	"sub_routes_number" : 2.0
},
{
	"latitude" : 31.540429,
	"longitude" : 104.703234,
	"routes_id" : "7,27",
	"routes_number" : 2.0,
	"station_id" : "10050032",
	"station_name" : "青羊村",
	"sub_routes_id" : "7001,27001",
	"sub_routes_number" : 2.0
},
{
	"latitude" : 31.546374,
	"longitude" : 104.704258,
	"routes_id" : "7",
	"routes_number" : 1.0,
	"station_id" : "10050041",
	"station_name" : "彭家坡",
	"sub_routes_id" : "7001",
	"sub_routes_number" : 1.0
},
{
	"latitude" : 31.549432,
	"longitude" : 104.704792,
	"routes_id" : "7",
	"routes_number" : 1.0,
	"station_id" : "10050042",
	"station_name" : "彭家坡",
	"sub_routes_id" : "7001",
	"sub_routes_number" : 1.0
},
{
	"latitude" : 31.565215,
	"longitude" : 104.694383,
	"routes_id" : "7",
	"routes_number" : 1.0,
	"station_id" : "10050051",
	"station_name" : "龙门站",
	"sub_routes_id" : "7001",
	"sub_routes_number" : 1.0
},
{
	"latitude" : 31.567002,
	"longitude" : 104.693784,
	"routes_id" : "7",
	"routes_number" : 1.0,
	"station_id" : "10050052",
	"station_name" : "龙门",
	"sub_routes_id" : "7001",
	"sub_routes_number" : 1.0
},
{
	"latitude" : 31.570228,
	"longitude" : 104.692821,
	"routes_id" : "7",
	"routes_number" : 1.0,
	"station_id" : "10050064",
	"station_name" : "龙门政府",
	"sub_routes_id" : "7001",
	"sub_routes_number" : 1.0
},
{
	"latitude" : 31.537927,
	"longitude" : 104.703093,
	"routes_id" : "408",
	"routes_number" : 1.0,
	"station_id" : "10050073",
	"station_name" : "西科大体育场",
	"sub_routes_id" : "40801",
	"sub_routes_number" : 1.0
},
{
	"latitude" : 31.542073,
	"longitude" : 104.700238,
	"routes_id" : "408,27",
	"routes_number" : 2.0,
	"station_id" : "10050074",
	"station_name" : "西科大体育场",
	"sub_routes_id" : "40801,27001",
	"sub_routes_number" : 2.0
},
{
	"latitude" : 31.469881,
	"longitude" : 104.744001,
	"routes_id" : "36,514,25,436",
	"routes_number" : 4.0,
	"station_id" : "11000011",
	"station_name" : "东方红大桥",
	"sub_routes_id" : "2506,2507,36001,2511,24001,2512,24002,2501,2502,14001,2503,43601,14002,2504,2505",
	"sub_routes_number" : 15.0
},
{
	"latitude" : 31.469688,
	"longitude" : 104.745487,
	"routes_id" : "20,59,36,514,25,436,67,68,43",
	"routes_number" : 9.0,
	"station_id" : "11000012",
	"station_name" : "东方红大桥",
	"sub_routes_id" : "36001,67001,43601,68001,2511,200001,2512,200002,43001,59001,14001,24001,2501,14002,2502,24002,2503,2504,2505,2506,2507",
	"sub_routes_number" : 21.0
},
{
	"latitude" : 31.462617,
	"longitude" : 104.748006,
	"routes_id" : "32,5,6,94,10,328,36,27,436,51,1,532,3",
	"routes_number" : 13.0,
	"station_id" : "11000021",
	"station_name" : "建国门",
	"sub_routes_id" : "10001,36001,10002,5001,32001,3001,53201,51001,1001,32801,6001,27001,43601,94001",
	"sub_routes_number" : 14.0
},
{
	"latitude" : 31.46349,
	"longitude" : 104.747831,
	"routes_id" : "6,94,102,10,328,13,15,1",
	"routes_number" : 8.0,
	"station_id" : "11000022",
	"station_name" : "建国门",
	"sub_routes_id" : "10001,10201,10002,15001,15002,15003,13001,15004,13002,15005,13003,15006,15007,1001,32801,6001,94001",
	"sub_routes_number" : 17.0
},
{
	"latitude" : 31.464253,
	"longitude" : 104.747901,
	"routes_id" : "532",
	"routes_number" : 1.0,
	"station_id" : "11000026",
	"station_name" : "建国门",
	"sub_routes_id" : "53201",
	"sub_routes_number" : 1.0
},
{
	"latitude" : 31.458534,
	"longitude" : 104.747983,
	"routes_id" : "94,10,74,69,4",
	"routes_number" : 5.0,
	"station_id" : "11000031",
	"station_name" : "兴宏国际广场",
	"sub_routes_id" : "10001,10002,74001,69001,4001,94001",
	"sub_routes_number" : 6.0
},
{
	"latitude" : 31.460276,
	"longitude" : 104.747835,
	"routes_id" : "94,10",
	"routes_number" : 2.0,
	"station_id" : "11000032",
	"station_name" : "兴宏国际商业广场",
	"sub_routes_id" : "10001,10002,94001",
	"sub_routes_number" : 3.0
},
{
	"latitude" : 31.455409,
	"longitude" : 104.747913,
	"routes_id" : "94,48,10,72,74,69,4",
	"routes_number" : 7.0,
	"station_id" : "11000041",
	"station_name" : "大西门",
	"sub_routes_id" : "10001,10002,74001,72001,69001,48001,4001,94001",
	"sub_routes_number" : 8.0
},
{
	"latitude" : 31.455983,
	"longitude" : 104.747898,
	"routes_id" : "94,48,10,72",
	"routes_number" : 4.0,
	"station_id" : "11000042",
	"station_name" : "大西门",
	"sub_routes_id" : "10001,10002,72001,48001,94001",
	"sub_routes_number" : 5.0
},
{
	"latitude" : 31.466449,
	"longitude" : 104.747761,
	"routes_id" : "58,59,94,408,22,8,36,27,436,52,1,68,3,43",
	"routes_number" : 14.0,
	"station_id" : "11000051",
	"station_name" : "中医院",
	"sub_routes_id" : "52001,36001,68001,3001,58001,8001,1001,40801,43001,22001,27001,43601,59001,94001",
	"sub_routes_number" : 14.0
},
{
	"latitude" : 31.46826,
	"longitude" : 104.747994,
	"routes_id" : "58,59,94,36,436,1,546",
	"routes_number" : 7.0,
	"station_id" : "11000052",
	"station_name" : "中医院",
	"sub_routes_id" : "54601,36001,58001,1001,43601,59001,94001",
	"sub_routes_number" : 7.0
},
{
	"latitude" : 31.469651,
	"longitude" : 104.745191,
	"routes_id" : "20,59,35,235,17,1,67,546",
	"routes_number" : 8.0,
	"station_id" : "11010013",
	"station_name" : "市人民医院",
	"sub_routes_id" : "54601,17002,200001,200002,1001,35001,23501,67001,59001",
	"sub_routes_number" : 9.0
},
{
	"latitude" : 31.469725,
	"longitude" : 104.746875,
	"routes_id" : "408,35,8,235,27,17,1,801,3",
	"routes_number" : 9.0,
	"station_id" : "11010014",
	"station_name" : "市人民医院",
	"sub_routes_id" : "17001,801001,3001,8001,1001,40801,35001,23501,27001",
	"sub_routes_number" : 9.0
},
{
	"latitude" : 31.469789,
	"longitude" : 104.737921,
	"routes_id" : "408,35,48,8,514,235,25,1,67,801,3",
	"routes_number" : 11.0,
	"station_id" : "11010033",
	"station_name" : "长虹国际城南站",
	"sub_routes_id" : "3001,67001,48001,23501,2511,2512,1001,14001,2501,14002,24001,2502,24002,2503,801001,2504,2505,8001,2506,2507,40801,35001",
	"sub_routes_number" : 22.0
},
{
	"latitude" : 31.46958,
	"longitude" : 104.736108,
	"routes_id" : "95,35,48,514,11,235,25,1,67",
	"routes_number" : 9.0,
	"station_id" : "11010034",
	"station_name" : "长虹国际城南站",
	"sub_routes_id" : "95001,11001,11002,67001,48001,23501,2511,2512,1001,14001,2501,14002,24001,2502,24002,2503,2504,2505,2506,2507,35001",
	"sub_routes_number" : 21.0
},
{
	"latitude" : 31.469568,
	"longitude" : 104.733009,
	"routes_id" : "11,13,77,18,66,44",
	"routes_number" : 6.0,
	"station_id" : "11010043",
	"station_name" : "川西北灯具市场",
	"sub_routes_id" : "44001,13001,13002,18001,13003,18002,66002,11001,18003,11002,18004,77001,18005,18006",
	"sub_routes_number" : 14.0
},
{
	"latitude" : 31.46962,
	"longitude" : 104.733951,
	"routes_id" : "48,514,25,13,26,77,66,67,44",
	"routes_number" : 9.0,
	"station_id" : "11010044",
	"station_name" : "川西北灯具市场",
	"sub_routes_id" : "26001,66002,67001,77001,48001,13001,13002,2511,13003,2512,14001,2501,14002,24001,2502,24002,44001,2503,2504,2505,2506,2507",
	"sub_routes_number" : 22.0
},
{
	"latitude" : 31.469545,
	"longitude" : 104.734906,
	"routes_id" : "18",
	"routes_number" : 1.0,
	"station_id" : "11010048",
	"station_name" : "川西北灯具市场",
	"sub_routes_id" : "18001,18002,18003,18004,18005,18006",
	"sub_routes_number" : 6.0
},
{
	"latitude" : 31.472607,
	"longitude" : 104.725205,
	"routes_id" : "13,66,44",
	"routes_number" : 3.0,
	"station_id" : "11010053",
	"station_name" : "玉泉路口",
	"sub_routes_id" : "44001,13001,13002,13003,66002",
	"sub_routes_number" : 5.0
},
{
	"latitude" : 31.472601,
	"longitude" : 104.725323,
	"routes_id" : "44",
	"routes_number" : 1.0,
	"station_id" : "11010054",
	"station_name" : "玉泉路口",
	"sub_routes_id" : "44001",
	"sub_routes_number" : 1.0
},
{
	"latitude" : 31.473378,
	"longitude" : 104.723728,
	"routes_id" : "13,66",
	"routes_number" : 2.0,
	"station_id" : "11010057",
	"station_name" : "石油库",
	"sub_routes_id" : "13001,13002,13003,66002",
	"sub_routes_number" : 4.0
},
{
	"latitude" : 31.47529,
	"longitude" : 104.721051,
	"routes_id" : "13,66",
	"routes_number" : 2.0,
	"station_id" : "11010073",
	"station_name" : "西山公园",
	"sub_routes_id" : "13001,13002,13003,66002",
	"sub_routes_number" : 4.0
},
{
	"latitude" : 31.476671,
	"longitude" : 104.720031,
	"routes_id" : "13,66",
	"routes_number" : 2.0,
	"station_id" : "11010074",
	"station_name" : "西山公园",
	"sub_routes_id" : "13001,13002,13003,66002",
	"sub_routes_number" : 4.0
},
{
	"latitude" : 31.47861,
	"longitude" : 104.714783,
	"routes_id" : "13,66",
	"routes_number" : 2.0,
	"station_id" : "11010083",
	"station_name" : "董家沟",
	"sub_routes_id" : "13001,13002,13003,66002",
	"sub_routes_number" : 4.0
},
{
	"latitude" : 31.479359,
	"longitude" : 104.712601,
	"routes_id" : "13,66",
	"routes_number" : 2.0,
	"station_id" : "11010084",
	"station_name" : "董家沟",
	"sub_routes_id" : "13001,13002,13003,66002",
	"sub_routes_number" : 4.0
},
{
	"latitude" : 31.486903,
	"longitude" : 104.704343,
	"routes_id" : "13",
	"routes_number" : 1.0,
	"station_id" : "11010094",
	"station_name" : "园艺东街路口",
	"sub_routes_id" : "13001,13002,13003",
	"sub_routes_number" : 3.0
},
{
	"latitude" : 31.480958,
	"longitude" : 104.708688,
	"routes_id" : "13,66",
	"routes_number" : 2.0,
	"station_id" : "11010103",
	"station_name" : "新庙一路",
	"sub_routes_id" : "13001,13002,13003,66002",
	"sub_routes_number" : 4.0
},
{
	"latitude" : 31.480983,
	"longitude" : 104.708986,
	"routes_id" : "13,66",
	"routes_number" : 2.0,
	"station_id" : "11010104",
	"station_name" : "新庙一路",
	"sub_routes_id" : "13001,13002,13003,66002",
	"sub_routes_number" : 4.0
},
{
	"latitude" : 31.48596,
	"longitude" : 104.704745,
	"routes_id" : "13,66",
	"routes_number" : 2.0,
	"station_id" : "11010113",
	"station_name" : "东辰中学部",
	"sub_routes_id" : "13001,13002,13003,66002",
	"sub_routes_number" : 4.0
},
{
	"latitude" : 31.48423,
	"longitude" : 104.706313,
	"routes_id" : "13,66",
	"routes_number" : 2.0,
	"station_id" : "11010114",
	"station_name" : "东辰中学部",
	"sub_routes_id" : "13001,13002,13003,66002",
	"sub_routes_number" : 4.0
},
{
	"latitude" : 31.546386,
	"longitude" : 104.833223,
	"routes_id" : "22,514",
	"routes_number" : 2.0,
	"station_id" : "11010133",
	"station_name" : "招呼站",
	"sub_routes_id" : "24001,24002,22001",
	"sub_routes_number" : 3.0
},
{
	"latitude" : 31.545835,
	"longitude" : 104.831358,
	"routes_id" : "22,514",
	"routes_number" : 2.0,
	"station_id" : "11010134",
	"station_name" : "招呼站",
	"sub_routes_id" : "24001,24002,22001",
	"sub_routes_number" : 3.0
},
{
	"latitude" : 31.469692,
	"longitude" : 104.734899,
	"routes_id" : "97,61,28,63",
	"routes_number" : 4.0,
	"station_id" : "11010143",
	"station_name" : "剑南市场",
	"sub_routes_id" : "97001,28001,63001,28002,63002,28003,63003,28004,61001,63004,28005,28006",
	"sub_routes_number" : 12.0
},
{
	"latitude" : 31.469466,
	"longitude" : 104.735072,
	"routes_id" : "97,61,28,63",
	"routes_number" : 4.0,
	"station_id" : "11010144",
	"station_name" : "剑南市场",
	"sub_routes_id" : "97001,28001,63001,28002,63002,28003,63003,28004,61001,63004,28005,28006",
	"sub_routes_number" : 12.0
},
{
	"latitude" : 31.48271,
	"longitude" : 104.728271,
	"routes_id" : "44",
	"routes_number" : 1.0,
	"station_id" : "11011151",
	"station_name" : "西科大西山校区",
	"sub_routes_id" : "44001",
	"sub_routes_number" : 1.0
},
{
	"latitude" : 31.48271,
	"longitude" : 104.728271,
	"routes_id" : "44",
	"routes_number" : 1.0,
	"station_id" : "11011152",
	"station_name" : "西科大西山校区",
	"sub_routes_id" : "44001",
	"sub_routes_number" : 1.0
},
{
	"latitude" : 31.479141,
	"longitude" : 104.728499,
	"routes_id" : "44",
	"routes_number" : 1.0,
	"station_id" : "11011161",
	"station_name" : "西山人行地道",
	"sub_routes_id" : "44001",
	"sub_routes_number" : 1.0
},
{
	"latitude" : 31.478035,
	"longitude" : 104.727436,
	"routes_id" : "44",
	"routes_number" : 1.0,
	"station_id" : "11011162",
	"station_name" : "西山人行地道",
	"sub_routes_id" : "44001",
	"sub_routes_number" : 1.0
},
{
	"latitude" : 31.474796,
	"longitude" : 104.726436,
	"routes_id" : "44",
	"routes_number" : 1.0,
	"station_id" : "11011171",
	"station_name" : "西山南路",
	"sub_routes_id" : "44001",
	"sub_routes_number" : 1.0
},
{
	"latitude" : 31.47445,
	"longitude" : 104.726407,
	"routes_id" : "44",
	"routes_number" : 1.0,
	"station_id" : "11011172",
	"station_name" : "西山南路",
	"sub_routes_id" : "44001",
	"sub_routes_number" : 1.0
},
{
	"latitude" : 31.461111,
	"longitude" : 104.745907,
	"routes_id" : "46,21,408,48,8,72,12,27,17,68,3,44",
	"routes_number" : 12.0,
	"station_id" : "11020013",
	"station_name" : "安昌路口",
	"sub_routes_id" : "17001,12003,44001,68001,21001,3001,72001,8001,40801,48001,27001,46001,12001",
	"sub_routes_number" : 13.0
},
{
	"latitude" : 31.460683,
	"longitude" : 104.747004,
	"routes_id" : "46,21,102,48,72,12,13,15,17,44,92",
	"routes_number" : 11.0,
	"station_id" : "11020014",
	"station_name" : "安昌路口",
	"sub_routes_id" : "10201,15006,15007,46001,17002,21001,12001,12003,48001,13001,72001,13002,13003,92001,44001,15001,15002,15003,15004,15005",
	"sub_routes_number" : 20.0
},
{
	"latitude" : 31.462854,
	"longitude" : 104.741327,
	"routes_id" : "46,21,408,48,8,72,12,27,17,68,3,44",
	"routes_number" : 12.0,
	"station_id" : "11020023",
	"station_name" : "华西证券",
	"sub_routes_id" : "17001,12003,44001,68001,21001,3001,72001,8001,40801,48001,27001,46001,12001",
	"sub_routes_number" : 13.0
},
{
	"latitude" : 31.462122,
	"longitude" : 104.742915,
	"routes_id" : "46,21,102,48,72,12,13,15,17,44,92",
	"routes_number" : 11.0,
	"station_id" : "11020024",
	"station_name" : "华西证劵",
	"sub_routes_id" : "10201,15006,15007,46001,17002,21001,12001,12003,48001,13001,72001,13002,13003,92001,44001,15001,15002,15003,15004,15005",
	"sub_routes_number" : 20.0
},
{
	"latitude" : 31.462334,
	"longitude" : 104.737541,
	"routes_id" : "46,21,408,8,72,12,44",
	"routes_number" : 7.0,
	"station_id" : "11020033",
	"station_name" : "独言口腔门诊",
	"sub_routes_id" : "12003,44001,21001,72001,8001,40801,46001,12001",
	"sub_routes_number" : 8.0
},
{
	"latitude" : 31.461488,
	"longitude" : 104.732611,
	"routes_id" : "21,72,12",
	"routes_number" : 3.0,
	"station_id" : "11020043",
	"station_name" : "金阳公寓",
	"sub_routes_id" : "12003,21001,72001,12001",
	"sub_routes_number" : 4.0
},
{
	"latitude" : 31.461708,
	"longitude" : 104.734106,
	"routes_id" : "72,12",
	"routes_number" : 2.0,
	"station_id" : "11020044",
	"station_name" : "金阳公寓",
	"sub_routes_id" : "12003,72001,12001",
	"sub_routes_number" : 3.0
},
{
	"latitude" : 31.461138,
	"longitude" : 104.729001,
	"routes_id" : "72,12",
	"routes_number" : 2.0,
	"station_id" : "11020053",
	"station_name" : "安昌路西段",
	"sub_routes_id" : "12003,72001,12001",
	"sub_routes_number" : 3.0
},
{
	"latitude" : 31.461363,
	"longitude" : 104.729882,
	"routes_id" : "72,12",
	"routes_number" : 2.0,
	"station_id" : "11020054",
	"station_name" : "安昌路西段",
	"sub_routes_id" : "12003,72001,12001",
	"sub_routes_number" : 3.0
},
{
	"latitude" : 31.460378,
	"longitude" : 104.755772,
	"routes_id" : "32,46,59,21,71,12,26,50,29,51,17,532,801,69,44,92",
	"routes_number" : 16.0,
	"station_id" : "11030013",
	"station_name" : "东街",
	"sub_routes_id" : "26001,46001,50001,17001,50002,21001,51001,71001,12001,12003,32001,29001,53201,92001,59001,69001,801001,44001",
	"sub_routes_number" : 18.0
},
{
	"latitude" : 31.46023,
	"longitude" : 104.756291,
	"routes_id" : "32,46,59,21,22,12,26,16,29,51,17,52,532,69,44,92",
	"routes_number" : 16.0,
	"station_id" : "11030014",
	"station_name" : "东街",
	"sub_routes_id" : "52001,12003,17002,44001,92001,21001,26001,32001,53201,16001,29001,51001,69001,22001,46001,59001,12001",
	"sub_routes_number" : 17.0
},
{
	"latitude" : 31.460411,
	"longitude" : 104.754885,
	"routes_id" : "22",
	"routes_number" : 1.0,
	"station_id" : "11030016",
	"station_name" : "东街（71路主上）",
	"sub_routes_id" : "22001",
	"sub_routes_number" : 1.0
},
{
	"latitude" : 31.460798,
	"longitude" : 104.749485,
	"routes_id" : "46,6,21,408,8,328,12,74,17,1,68,69,44,4",
	"routes_number" : 14.0,
	"station_id" : "11030033",
	"station_name" : "市中心医院",
	"sub_routes_id" : "17001,12003,44001,68001,21001,74001,8001,1001,40801,69001,32801,6001,46001,4001,12001",
	"sub_routes_number" : 15.0
},
{
	"latitude" : 31.460348,
	"longitude" : 104.751751,
	"routes_id" : "32,5,46,6,21,328,36,12,436,51,17,1,532,44,92",
	"routes_number" : 15.0,
	"station_id" : "11030034",
	"station_name" : "市中心医院",
	"sub_routes_id" : "12003,17002,44001,92001,36001,21001,5001,32001,53201,51001,1001,32801,6001,43601,46001,12001",
	"sub_routes_number" : 16.0
},
{
	"latitude" : 31.459254,
	"longitude" : 104.752981,
	"routes_id" : "58,6,328,74,28,16,53,66,1,69,4",
	"routes_number" : 11.0,
	"station_id" : "11040011",
	"station_name" : "红星街",
	"sub_routes_id" : "28001,28002,28003,28004,74001,28005,28006,58001,66002,16001,1001,69001,32801,6001,4001,5301",
	"sub_routes_number" : 16.0
},
{
	"latitude" : 31.457904,
	"longitude" : 104.752981,
	"routes_id" : "58,6,328,71,28,50,53,66,1",
	"routes_number" : 9.0,
	"station_id" : "11040012",
	"station_name" : "红星街",
	"sub_routes_id" : "71001,28001,50001,28002,50002,28003,28004,28005,28006,58001,66002,1001,32801,6001,5301",
	"sub_routes_number" : 15.0
},
{
	"latitude" : 31.452711,
	"longitude" : 104.752566,
	"routes_id" : "6,48,328,28,53,4",
	"routes_number" : 6.0,
	"station_id" : "11040021",
	"station_name" : "红星街南段",
	"sub_routes_id" : "28001,28002,28003,28004,28005,28006,32801,48001,6001,4001,5301",
	"sub_routes_number" : 11.0
},
{
	"latitude" : 31.455924,
	"longitude" : 104.752673,
	"routes_id" : "58,6,74,16,66,1",
	"routes_number" : 6.0,
	"station_id" : "11040022",
	"station_name" : "万江眼科医院",
	"sub_routes_id" : "74001,58001,66002,16001,1001,6001",
	"sub_routes_number" : 6.0
},
{
	"latitude" : 31.453926,
	"longitude" : 104.752492,
	"routes_id" : "33,48,328,28,53,1,4",
	"routes_number" : 7.0,
	"station_id" : "11040027",
	"station_name" : "红星街南段",
	"sub_routes_id" : "28001,28002,28003,28004,28005,28006,1001,32801,48001,33001,4001,5301",
	"sub_routes_number" : 12.0
},
{
	"latitude" : 31.452715,
	"longitude" : 104.752355,
	"routes_id" : "58,2001,9",
	"routes_number" : 3.0,
	"station_id" : "11040041",
	"station_name" : "南桥眼科分院",
	"sub_routes_id" : "20003,9002,58001,20002",
	"sub_routes_number" : 4.0
},
{
	"latitude" : 31.452832,
	"longitude" : 104.752333,
	"routes_id" : "58,9",
	"routes_number" : 2.0,
	"station_id" : "11040042",
	"station_name" : "南桥眼科分院",
	"sub_routes_id" : "58001,9001",
	"sub_routes_number" : 2.0
},
{
	"latitude" : 31.453761,
	"longitude" : 104.755611,
	"routes_id" : "6,94,10,72,66",
	"routes_number" : 5.0,
	"station_id" : "11050013",
	"station_name" : "南河路口",
	"sub_routes_id" : "10001,10002,66002,72001,6001,94001",
	"sub_routes_number" : 6.0
},
{
	"latitude" : 31.453558,
	"longitude" : 104.756705,
	"routes_id" : "94,10,71,72,50,66",
	"routes_number" : 6.0,
	"station_id" : "11050014",
	"station_name" : "南河路口",
	"sub_routes_id" : "10001,71001,10002,50001,50002,66002,72001,94001",
	"sub_routes_number" : 8.0
},
{
	"latitude" : 31.4549,
	"longitude" : 104.750775,
	"routes_id" : "33,94,10,9,72,16",
	"routes_number" : 6.0,
	"station_id" : "11050033",
	"station_name" : "南河路中段",
	"sub_routes_id" : "10001,10002,72001,16001,33001,94001,9001",
	"sub_routes_number" : 7.0
},
{
	"latitude" : 31.45454,
	"longitude" : 104.751731,
	"routes_id" : "2001,33,94,10,9,72,16,69",
	"routes_number" : 8.0,
	"station_id" : "11050034",
	"station_name" : "南河路中段",
	"sub_routes_id" : "20003,9002,10001,10002,72001,16001,69001,33001,94001,20002",
	"sub_routes_number" : 10.0
},
{
	"latitude" : 31.469988,
	"longitude" : 104.738412,
	"routes_id" : "20,59,6,36,39,436,53",
	"routes_number" : 7.0,
	"station_id" : "11060011",
	"station_name" : "长虹国际城",
	"sub_routes_id" : "36001,200001,39001,200002,6001,43601,5301,59001",
	"sub_routes_number" : 8.0
},
{
	"latitude" : 31.470635,
	"longitude" : 104.738322,
	"routes_id" : "20,59,6,36,39,436,77,53",
	"routes_number" : 8.0,
	"station_id" : "11060012",
	"station_name" : "长虹国际城",
	"sub_routes_id" : "36001,200001,39001,200002,77001,6001,43601,5301,59001",
	"sub_routes_number" : 9.0
},
{
	"latitude" : 31.473945,
	"longitude" : 104.738432,
	"routes_id" : "20,59,6,36,39,436,53",
	"routes_number" : 7.0,
	"station_id" : "11060021",
	"station_name" : "九洲跃进路1958",
	"sub_routes_id" : "36001,200001,39001,200002,6001,43601,5301,59001",
	"sub_routes_number" : 8.0
},
{
	"latitude" : 31.475376,
	"longitude" : 104.738281,
	"routes_id" : "20,59,6,36,39,436,77,53",
	"routes_number" : 8.0,
	"station_id" : "11060022",
	"station_name" : "九洲1958跃进路",
	"sub_routes_id" : "36001,200001,39001,200002,77001,6001,43601,5301,59001",
	"sub_routes_number" : 9.0
},
{
	"latitude" : 31.478891,
	"longitude" : 104.738401,
	"routes_id" : "20,59,6,36,39,436,53",
	"routes_number" : 7.0,
	"station_id" : "11060031",
	"station_name" : "四0四医院",
	"sub_routes_id" : "36001,200001,39001,200002,6001,43601,5301,59001",
	"sub_routes_number" : 8.0
},
{
	"latitude" : 31.480058,
	"longitude" : 104.738333,
	"routes_id" : "20,59,6,36,39,436,77,53",
	"routes_number" : 8.0,
	"station_id" : "11060032",
	"station_name" : "四0四医院",
	"sub_routes_id" : "36001,200001,39001,200002,77001,6001,43601,5301,59001",
	"sub_routes_number" : 9.0
},
{
	"latitude" : 31.48393,
	"longitude" : 104.740127,
	"routes_id" : "6,94,36,39,27,436,53",
	"routes_number" : 7.0,
	"station_id" : "11060041",
	"station_name" : "五一名都",
	"sub_routes_id" : "36001,39001,6001,27001,43601,5301,94001",
	"sub_routes_number" : 7.0
},
{
	"latitude" : 31.484418,
	"longitude" : 104.740386,
	"routes_id" : "6,94,36,39,27,436,53",
	"routes_number" : 7.0,
	"station_id" : "11060042",
	"station_name" : "五一名都",
	"sub_routes_id" : "36001,39001,6001,27001,43601,5301,94001",
	"sub_routes_number" : 7.0
},
{
	"latitude" : 31.488434,
	"longitude" : 104.740201,
	"routes_id" : "6,94,36,39,27,436,53",
	"routes_number" : 7.0,
	"station_id" : "11060051",
	"station_name" : "涪江二桥",
	"sub_routes_id" : "36001,39001,6001,27001,43601,5301,94001",
	"sub_routes_number" : 7.0
},
{
	"latitude" : 31.489647,
	"longitude" : 104.739954,
	"routes_id" : "6,94,36,39,27,436,53",
	"routes_number" : 7.0,
	"station_id" : "11060052",
	"station_name" : "涪江二桥",
	"sub_routes_id" : "36001,39001,6001,27001,43601,5301,94001",
	"sub_routes_number" : 7.0
},
{
	"latitude" : 31.492308,
	"longitude" : 104.739775,
	"routes_id" : "6,94,36,39,27,436,53",
	"routes_number" : 7.0,
	"station_id" : "11060061",
	"station_name" : "长虹世纪城",
	"sub_routes_id" : "36001,39001,6001,27001,43601,5301,94001",
	"sub_routes_number" : 7.0
},
{
	"latitude" : 31.49403,
	"longitude" : 104.738781,
	"routes_id" : "6,94,36,39,27,436,53",
	"routes_number" : 7.0,
	"station_id" : "11060062",
	"station_name" : "长虹世纪城",
	"sub_routes_id" : "36001,39001,6001,27001,43601,5301,94001",
	"sub_routes_number" : 7.0
},
{
	"latitude" : 31.49519,
	"longitude" : 104.738435,
	"routes_id" : "6,94,36,39,27,436,53",
	"routes_number" : 7.0,
	"station_id" : "11060071",
	"station_name" : "高水",
	"sub_routes_id" : "36001,39001,6001,27001,43601,5301,94001",
	"sub_routes_number" : 7.0
},
{
	"latitude" : 31.496485,
	"longitude" : 104.737981,
	"routes_id" : "6,94,36,39,27,436,53",
	"routes_number" : 7.0,
	"station_id" : "11060072",
	"station_name" : "高水",
	"sub_routes_id" : "36001,39001,6001,27001,43601,5301,94001",
	"sub_routes_number" : 7.0
},
{
	"latitude" : 31.49945,
	"longitude" : 104.736581,
	"routes_id" : "36,436",
	"routes_number" : 2.0,
	"station_id" : "11060081",
	"station_name" : "翠满庭",
	"sub_routes_id" : "36001,43601",
	"sub_routes_number" : 2.0
},
{
	"latitude" : 31.500697,
	"longitude" : 104.735919,
	"routes_id" : "36,436",
	"routes_number" : 2.0,
	"station_id" : "11060082",
	"station_name" : "翠满庭",
	"sub_routes_id" : "36001,43601",
	"sub_routes_number" : 2.0
},
{
	"latitude" : 31.503495,
	"longitude" : 104.734498,
	"routes_id" : "36,436",
	"routes_number" : 2.0,
	"station_id" : "11060091",
	"station_name" : "圣水二社",
	"sub_routes_id" : "36001,43601",
	"sub_routes_number" : 2.0
},
{
	"latitude" : 31.503623,
	"longitude" : 104.734271,
	"routes_id" : "36,436",
	"routes_number" : 2.0,
	"station_id" : "11060092",
	"station_name" : "圣水二社",
	"sub_routes_id" : "36001,43601",
	"sub_routes_number" : 2.0
},
{
	"latitude" : 31.507289,
	"longitude" : 104.730812,
	"routes_id" : "36,436",
	"routes_number" : 2.0,
	"station_id" : "11060101",
	"station_name" : "花园星河湾",
	"sub_routes_id" : "36001,43601",
	"sub_routes_number" : 2.0
},
{
	"latitude" : 31.507289,
	"longitude" : 104.730812,
	"routes_id" : "36",
	"routes_number" : 1.0,
	"station_id" : "11060102",
	"station_name" : "花园星河湾",
	"sub_routes_id" : "36001",
	"sub_routes_number" : 1.0
},
{
	"latitude" : 31.510264,
	"longitude" : 104.728243,
	"routes_id" : "36",
	"routes_number" : 1.0,
	"station_id" : "11060201",
	"station_name" : "水厂招呼站",
	"sub_routes_id" : "36001",
	"sub_routes_number" : 1.0
},
{
	"latitude" : 31.510253,
	"longitude" : 104.728091,
	"routes_id" : "36",
	"routes_number" : 1.0,
	"station_id" : "11060202",
	"station_name" : "水厂招呼站",
	"sub_routes_id" : "36001",
	"sub_routes_number" : 1.0
},
{
	"latitude" : 31.512943,
	"longitude" : 104.724928,
	"routes_id" : "36",
	"routes_number" : 1.0,
	"station_id" : "11060301",
	"station_name" : "跃进路北段",
	"sub_routes_id" : "36001",
	"sub_routes_number" : 1.0
},
{
	"latitude" : 31.5128,
	"longitude" : 104.722581,
	"routes_id" : "36",
	"routes_number" : 1.0,
	"station_id" : "11060302",
	"station_name" : "跃进路北段",
	"sub_routes_id" : "36001",
	"sub_routes_number" : 1.0
},
{
	"latitude" : 31.551451,
	"longitude" : 104.676151,
	"routes_id" : "73",
	"routes_number" : 1.0,
	"station_id" : "11070013",
	"station_name" : "招呼站",
	"sub_routes_id" : "73001",
	"sub_routes_number" : 1.0
},
{
	"latitude" : 31.552095,
	"longitude" : 104.675555,
	"routes_id" : "73",
	"routes_number" : 1.0,
	"station_id" : "11070014",
	"station_name" : "招呼站",
	"sub_routes_id" : "73001",
	"sub_routes_number" : 1.0
},
{
	"latitude" : 31.526657,
	"longitude" : 104.694173,
	"routes_id" : "8,38",
	"routes_number" : 2.0,
	"station_id" : "11070023",
	"station_name" : "宝龙寺",
	"sub_routes_id" : "8001,38001",
	"sub_routes_number" : 2.0
},
{
	"latitude" : 31.526805,
	"longitude" : 104.693136,
	"routes_id" : "8,38",
	"routes_number" : 2.0,
	"station_id" : "11070024",
	"station_name" : "宝龙寺",
	"sub_routes_id" : "8001,38001",
	"sub_routes_number" : 2.0
},
{
	"latitude" : 31.528368,
	"longitude" : 104.692038,
	"routes_id" : "8,38",
	"routes_number" : 2.0,
	"station_id" : "11070033",
	"station_name" : "西科大南门",
	"sub_routes_id" : "8001,38001",
	"sub_routes_number" : 2.0
},
{
	"latitude" : 31.528368,
	"longitude" : 104.692038,
	"routes_id" : "8,38",
	"routes_number" : 2.0,
	"station_id" : "11070034",
	"station_name" : "西科大南门",
	"sub_routes_id" : "8001,38001",
	"sub_routes_number" : 2.0
},
{
	"latitude" : 31.474396,
	"longitude" : 104.733321,
	"routes_id" : "48,514,25,26,67",
	"routes_number" : 5.0,
	"station_id" : "11070043",
	"station_name" : "综合市场",
	"sub_routes_id" : "2506,2507,26001,2511,24001,2512,24002,2501,48001,2502,14001,2503,14002,67001,2504,2505",
	"sub_routes_number" : 16.0
},
{
	"latitude" : 31.47454,
	"longitude" : 104.733377,
	"routes_id" : "7,23,73",
	"routes_number" : 3.0,
	"station_id" : "11070044",
	"station_name" : "综合市场",
	"sub_routes_id" : "23001,7001,73001",
	"sub_routes_number" : 3.0
},
{
	"latitude" : 31.475738,
	"longitude" : 104.745453,
	"routes_id" : "58,94,27,546,43",
	"routes_number" : 5.0,
	"station_id" : "11070053",
	"station_name" : "九洲花苑",
	"sub_routes_id" : "54601,58001,43001,27001,94001",
	"sub_routes_number" : 5.0
},
{
	"latitude" : 31.47267,
	"longitude" : 104.747288,
	"routes_id" : "94,27,43",
	"routes_number" : 3.0,
	"station_id" : "11070054",
	"station_name" : "九洲花苑",
	"sub_routes_id" : "43001,27001,94001",
	"sub_routes_number" : 3.0
},
{
	"latitude" : 31.479566,
	"longitude" : 104.743363,
	"routes_id" : "58,94,27,546,43",
	"routes_number" : 5.0,
	"station_id" : "11070063",
	"station_name" : "滨河路北段",
	"sub_routes_id" : "54601,58001,43001,27001,94001",
	"sub_routes_number" : 5.0
},
{
	"latitude" : 31.480733,
	"longitude" : 104.740568,
	"routes_id" : "94,27",
	"routes_number" : 2.0,
	"station_id" : "11070073",
	"station_name" : "五一广场",
	"sub_routes_id" : "27001,94001",
	"sub_routes_number" : 2.0
},
{
	"latitude" : 31.480659,
	"longitude" : 104.742401,
	"routes_id" : "94,27",
	"routes_number" : 2.0,
	"station_id" : "11070074",
	"station_name" : "五一广场",
	"sub_routes_id" : "27001,94001",
	"sub_routes_number" : 2.0
},
{
	"latitude" : 31.49679,
	"longitude" : 104.734926,
	"routes_id" : "6,27",
	"routes_number" : 2.0,
	"station_id" : "11070083",
	"station_name" : "高水中街",
	"sub_routes_id" : "6001,27001",
	"sub_routes_number" : 2.0
},
{
	"latitude" : 31.49724,
	"longitude" : 104.736355,
	"routes_id" : "6,27",
	"routes_number" : 2.0,
	"station_id" : "11070084",
	"station_name" : "高水中街",
	"sub_routes_id" : "6001,27001",
	"sub_routes_number" : 2.0
},
{
	"latitude" : 31.4808,
	"longitude" : 104.731774,
	"routes_id" : "20,7,23,60,73,19,1",
	"routes_number" : 7.0,
	"station_id" : "11070093",
	"station_name" : "悦欣园",
	"sub_routes_id" : "23001,7001,200001,200002,1001,19001,60001,73001",
	"sub_routes_number" : 8.0
},
{
	"latitude" : 31.480914,
	"longitude" : 104.733731,
	"routes_id" : "20,60,19,1",
	"routes_number" : 4.0,
	"station_id" : "11070094",
	"station_name" : "悦欣园",
	"sub_routes_id" : "200001,200002,1001,19001,60001",
	"sub_routes_number" : 5.0
},
{
	"latitude" : 31.50048,
	"longitude" : 104.746161,
	"routes_id" : "39,43",
	"routes_number" : 2.0,
	"station_id" : "11070103",
	"station_name" : "汉龙小岛花园",
	"sub_routes_id" : "39001,43001",
	"sub_routes_number" : 2.0
},
{
	"latitude" : 31.475888,
	"longitude" : 104.731876,
	"routes_id" : "48,514,25,26,67",
	"routes_number" : 5.0,
	"station_id" : "11070104",
	"station_name" : "火车货站",
	"sub_routes_id" : "2506,2507,26001,2511,24001,2512,24002,2501,48001,2502,14001,2503,14002,67001,2504,2505",
	"sub_routes_number" : 16.0
},
{
	"latitude" : 31.476309,
	"longitude" : 104.731521,
	"routes_id" : "7,23,73",
	"routes_number" : 3.0,
	"station_id" : "11070105",
	"station_name" : "火车货站",
	"sub_routes_id" : "23001,7001,73001",
	"sub_routes_number" : 3.0
},
{
	"latitude" : 31.477171,
	"longitude" : 104.730133,
	"routes_id" : "23,73",
	"routes_number" : 2.0,
	"station_id" : "11070106",
	"station_name" : "火车货站",
	"sub_routes_id" : "23001,73001",
	"sub_routes_number" : 2.0
},
{
	"latitude" : 31.500839,
	"longitude" : 104.744961,
	"routes_id" : "39,43",
	"routes_number" : 2.0,
	"station_id" : "11070109",
	"station_name" : "汉龙小岛花园",
	"sub_routes_id" : "39001,43001",
	"sub_routes_number" : 2.0
},
{
	"latitude" : 31.491048,
	"longitude" : 104.729887,
	"routes_id" : "6",
	"routes_number" : 1.0,
	"station_id" : "11070114",
	"station_name" : "招呼站",
	"sub_routes_id" : "6001",
	"sub_routes_number" : 1.0
},
{
	"latitude" : 31.495095,
	"longitude" : 104.729386,
	"routes_id" : "6,73,53",
	"routes_number" : 3.0,
	"station_id" : "11070123",
	"station_name" : "凯厦花园",
	"sub_routes_id" : "6001,5301,73001",
	"sub_routes_number" : 3.0
},
{
	"latitude" : 31.498965,
	"longitude" : 104.727694,
	"routes_id" : "94,73",
	"routes_number" : 2.0,
	"station_id" : "11070124",
	"station_name" : "牌坊村",
	"sub_routes_id" : "94001,73001",
	"sub_routes_number" : 2.0
},
{
	"latitude" : 31.493214,
	"longitude" : 104.728308,
	"routes_id" : "6",
	"routes_number" : 1.0,
	"station_id" : "11070129",
	"station_name" : "凯厦花园",
	"sub_routes_id" : "6001",
	"sub_routes_number" : 1.0
},
{
	"latitude" : 31.498168,
	"longitude" : 104.72783,
	"routes_id" : "94,73",
	"routes_number" : 2.0,
	"station_id" : "11070134",
	"station_name" : "牌坊村",
	"sub_routes_id" : "94001,73001",
	"sub_routes_number" : 2.0
},
{
	"latitude" : 31.502683,
	"longitude" : 104.726075,
	"routes_id" : "94,73",
	"routes_number" : 2.0,
	"station_id" : "11070143",
	"station_name" : "长虹培训中心",
	"sub_routes_id" : "94001,73001",
	"sub_routes_number" : 2.0
},
{
	"latitude" : 31.506068,
	"longitude" : 104.718735,
	"routes_id" : "73",
	"routes_number" : 1.0,
	"station_id" : "11070144",
	"station_name" : "下龙溪村五社",
	"sub_routes_id" : "73001",
	"sub_routes_number" : 1.0
},
{
	"latitude" : 31.505686,
	"longitude" : 104.719071,
	"routes_id" : "73",
	"routes_number" : 1.0,
	"station_id" : "11070153",
	"station_name" : "下龙溪村五社",
	"sub_routes_id" : "73001",
	"sub_routes_number" : 1.0
},
{
	"latitude" : 31.508833,
	"longitude" : 104.716998,
	"routes_id" : "73",
	"routes_number" : 1.0,
	"station_id" : "11070154",
	"station_name" : "下龙溪村一社",
	"sub_routes_id" : "73001",
	"sub_routes_number" : 1.0
},
{
	"latitude" : 31.508393,
	"longitude" : 104.717396,
	"routes_id" : "73",
	"routes_number" : 1.0,
	"station_id" : "11070163",
	"station_name" : "下龙溪村一社",
	"sub_routes_id" : "73001",
	"sub_routes_number" : 1.0
},
{
	"latitude" : 31.512078,
	"longitude" : 104.713496,
	"routes_id" : "73",
	"routes_number" : 1.0,
	"station_id" : "11070164",
	"station_name" : "下龙溪村",
	"sub_routes_id" : "73001",
	"sub_routes_number" : 1.0
},
{
	"latitude" : 31.511623,
	"longitude" : 104.713976,
	"routes_id" : "73",
	"routes_number" : 1.0,
	"station_id" : "11070173",
	"station_name" : "下龙溪村",
	"sub_routes_id" : "73001",
	"sub_routes_number" : 1.0
},
{
	"latitude" : 31.513445,
	"longitude" : 104.710373,
	"routes_id" : "73",
	"routes_number" : 1.0,
	"station_id" : "11070174",
	"station_name" : "下龙溪村三社",
	"sub_routes_id" : "73001",
	"sub_routes_number" : 1.0
},
{
	"latitude" : 31.513971,
	"longitude" : 104.711623,
	"routes_id" : "73",
	"routes_number" : 1.0,
	"station_id" : "11070183",
	"station_name" : "下龙溪村三社",
	"sub_routes_id" : "73001",
	"sub_routes_number" : 1.0
},
{
	"latitude" : 31.512778,
	"longitude" : 104.708718,
	"routes_id" : "73",
	"routes_number" : 1.0,
	"station_id" : "11070184",
	"station_name" : "下龙溪村四社",
	"sub_routes_id" : "73001",
	"sub_routes_number" : 1.0
},
{
	"latitude" : 31.513053,
	"longitude" : 104.709236,
	"routes_id" : "73",
	"routes_number" : 1.0,
	"station_id" : "11070193",
	"station_name" : "下龙溪村四社",
	"sub_routes_id" : "73001",
	"sub_routes_number" : 1.0
},
{
	"latitude" : 31.47657,
	"longitude" : 104.730151,
	"routes_id" : "48,514,25,26,67",
	"routes_number" : 5.0,
	"station_id" : "11070194",
	"station_name" : "火车货站",
	"sub_routes_id" : "2506,2507,26001,2511,24001,2512,24002,2501,48001,2502,14001,2503,14002,67001,2504,2505",
	"sub_routes_number" : 16.0
},
{
	"latitude" : 31.511033,
	"longitude" : 104.703626,
	"routes_id" : "73",
	"routes_number" : 1.0,
	"station_id" : "11070203",
	"station_name" : "龙溪村二社中段",
	"sub_routes_id" : "73001",
	"sub_routes_number" : 1.0
},
{
	"latitude" : 31.511029,
	"longitude" : 104.702261,
	"routes_id" : "73",
	"routes_number" : 1.0,
	"station_id" : "11070204",
	"station_name" : "龙溪村二社中段",
	"sub_routes_id" : "73001",
	"sub_routes_number" : 1.0
},
{
	"latitude" : 31.511428,
	"longitude" : 104.698936,
	"routes_id" : "73",
	"routes_number" : 1.0,
	"station_id" : "11070213",
	"station_name" : "龙溪村三社",
	"sub_routes_id" : "73001",
	"sub_routes_number" : 1.0
},
{
	"latitude" : 31.511725,
	"longitude" : 104.697991,
	"routes_id" : "73",
	"routes_number" : 1.0,
	"station_id" : "11070214",
	"station_name" : "龙溪村三社",
	"sub_routes_id" : "73001",
	"sub_routes_number" : 1.0
},
{
	"latitude" : 31.513255,
	"longitude" : 104.695958,
	"routes_id" : "73",
	"routes_number" : 1.0,
	"station_id" : "11070223",
	"station_name" : "龙溪村四社",
	"sub_routes_id" : "73001",
	"sub_routes_number" : 1.0
},
{
	"latitude" : 31.513676,
	"longitude" : 104.695556,
	"routes_id" : "73",
	"routes_number" : 1.0,
	"station_id" : "11070224",
	"station_name" : "龙溪村四社",
	"sub_routes_id" : "73001",
	"sub_routes_number" : 1.0
},
{
	"latitude" : 31.516325,
	"longitude" : 104.693971,
	"routes_id" : "73",
	"routes_number" : 1.0,
	"station_id" : "11070233",
	"station_name" : "龙中村一社",
	"sub_routes_id" : "73001",
	"sub_routes_number" : 1.0
},
{
	"latitude" : 31.516706,
	"longitude" : 104.693573,
	"routes_id" : "73",
	"routes_number" : 1.0,
	"station_id" : "11070234",
	"station_name" : "龙中村一社",
	"sub_routes_id" : "73001",
	"sub_routes_number" : 1.0
},
{
	"latitude" : 31.532081,
	"longitude" : 104.687002,
	"routes_id" : "38",
	"routes_number" : 1.0,
	"station_id" : "11070253",
	"station_name" : "兴龙村三社",
	"sub_routes_id" : "38001",
	"sub_routes_number" : 1.0
},
{
	"latitude" : 31.531943,
	"longitude" : 104.687275,
	"routes_id" : "38",
	"routes_number" : 1.0,
	"station_id" : "11070254",
	"station_name" : "兴隆村三社",
	"sub_routes_id" : "38001",
	"sub_routes_number" : 1.0
},
{
	"latitude" : 31.53793,
	"longitude" : 104.682861,
	"routes_id" : "38,73",
	"routes_number" : 2.0,
	"station_id" : "11070263",
	"station_name" : "西科大北门",
	"sub_routes_id" : "38001,73001",
	"sub_routes_number" : 2.0
},
{
	"latitude" : 31.536939,
	"longitude" : 104.683185,
	"routes_id" : "38,73",
	"routes_number" : 2.0,
	"station_id" : "11070264",
	"station_name" : "西科大北门",
	"sub_routes_id" : "38001,73001",
	"sub_routes_number" : 2.0
},
{
	"latitude" : 31.535823,
	"longitude" : 104.684215,
	"routes_id" : "38",
	"routes_number" : 1.0,
	"station_id" : "11070265",
	"station_name" : "西科大北门",
	"sub_routes_id" : "38001",
	"sub_routes_number" : 1.0
},
{
	"latitude" : 31.538563,
	"longitude" : 104.681501,
	"routes_id" : "73",
	"routes_number" : 1.0,
	"station_id" : "11070273",
	"station_name" : "兴龙村小学",
	"sub_routes_id" : "73001",
	"sub_routes_number" : 1.0
},
{
	"latitude" : 31.538987,
	"longitude" : 104.680981,
	"routes_id" : "73",
	"routes_number" : 1.0,
	"station_id" : "11070274",
	"station_name" : "兴龙村小学",
	"sub_routes_id" : "73001",
	"sub_routes_number" : 1.0
},
{
	"latitude" : 31.548491,
	"longitude" : 104.677707,
	"routes_id" : "73",
	"routes_number" : 1.0,
	"station_id" : "11070283",
	"station_name" : "绵江七社",
	"sub_routes_id" : "73001",
	"sub_routes_number" : 1.0
},
{
	"latitude" : 31.549051,
	"longitude" : 104.677065,
	"routes_id" : "73",
	"routes_number" : 1.0,
	"station_id" : "11070284",
	"station_name" : "绵江七社",
	"sub_routes_id" : "73001",
	"sub_routes_number" : 1.0
},
{
	"latitude" : 31.553061,
	"longitude" : 104.672344,
	"routes_id" : "73",
	"routes_number" : 1.0,
	"station_id" : "11070293",
	"station_name" : "绵江三社",
	"sub_routes_id" : "73001",
	"sub_routes_number" : 1.0
},
{
	"latitude" : 31.553271,
	"longitude" : 104.671575,
	"routes_id" : "73",
	"routes_number" : 1.0,
	"station_id" : "11070294",
	"station_name" : "绵江三社",
	"sub_routes_id" : "73001",
	"sub_routes_number" : 1.0
},
{
	"latitude" : 31.561555,
	"longitude" : 104.673938,
	"routes_id" : "73",
	"routes_number" : 1.0,
	"station_id" : "11070303",
	"station_name" : "黄木村",
	"sub_routes_id" : "73001",
	"sub_routes_number" : 1.0
},
{
	"latitude" : 31.562055,
	"longitude" : 104.674064,
	"routes_id" : "73",
	"routes_number" : 1.0,
	"station_id" : "11070304",
	"station_name" : "黄木村",
	"sub_routes_id" : "73001",
	"sub_routes_number" : 1.0
},
{
	"latitude" : 31.565858,
	"longitude" : 104.677748,
	"routes_id" : "73",
	"routes_number" : 1.0,
	"station_id" : "11070313",
	"station_name" : "黄木一社",
	"sub_routes_id" : "73001",
	"sub_routes_number" : 1.0
},
{
	"latitude" : 31.567738,
	"longitude" : 104.684771,
	"routes_id" : "7",
	"routes_number" : 1.0,
	"station_id" : "11070343",
	"station_name" : "农资批发市场",
	"sub_routes_id" : "7001",
	"sub_routes_number" : 1.0
},
{
	"latitude" : 31.567545,
	"longitude" : 104.686713,
	"routes_id" : "7,73",
	"routes_number" : 2.0,
	"station_id" : "11070344",
	"station_name" : "农资批发市场",
	"sub_routes_id" : "7001,73001",
	"sub_routes_number" : 2.0
},
{
	"latitude" : 31.567069,
	"longitude" : 104.687931,
	"routes_id" : "73",
	"routes_number" : 1.0,
	"station_id" : "11070354",
	"station_name" : "招呼站",
	"sub_routes_id" : "73001",
	"sub_routes_number" : 1.0
},
{
	"latitude" : 31.560386,
	"longitude" : 104.689164,
	"routes_id" : "73",
	"routes_number" : 1.0,
	"station_id" : "11070364",
	"station_name" : "招呼站（批发市场）",
	"sub_routes_id" : "73001",
	"sub_routes_number" : 1.0
},
{
	"latitude" : 31.566451,
	"longitude" : 104.678015,
	"routes_id" : "73",
	"routes_number" : 1.0,
	"station_id" : "11070374",
	"station_name" : "招呼站",
	"sub_routes_id" : "73001",
	"sub_routes_number" : 1.0
},
{
	"latitude" : 31.541703,
	"longitude" : 104.679661,
	"routes_id" : "73",
	"routes_number" : 1.0,
	"station_id" : "11070383",
	"station_name" : "兴龙一社",
	"sub_routes_id" : "73001",
	"sub_routes_number" : 1.0
},
{
	"latitude" : 31.542356,
	"longitude" : 104.679651,
	"routes_id" : "73",
	"routes_number" : 1.0,
	"station_id" : "11070384",
	"station_name" : "兴龙一社",
	"sub_routes_id" : "73001",
	"sub_routes_number" : 1.0
},
{
	"latitude" : 31.545636,
	"longitude" : 104.678871,
	"routes_id" : "73",
	"routes_number" : 1.0,
	"station_id" : "11070393",
	"station_name" : "招呼站73",
	"sub_routes_id" : "73001",
	"sub_routes_number" : 1.0
},
{
	"latitude" : 31.546467,
	"longitude" : 104.678161,
	"routes_id" : "73",
	"routes_number" : 1.0,
	"station_id" : "11070394",
	"station_name" : "招呼站73",
	"sub_routes_id" : "73001",
	"sub_routes_number" : 1.0
},
{
	"latitude" : 31.535493,
	"longitude" : 104.683111,
	"routes_id" : "73",
	"routes_number" : 1.0,
	"station_id" : "11070403",
	"station_name" : "兴龙东街",
	"sub_routes_id" : "73001",
	"sub_routes_number" : 1.0
},
{
	"latitude" : 31.53529,
	"longitude" : 104.682881,
	"routes_id" : "73",
	"routes_number" : 1.0,
	"station_id" : "11070404",
	"station_name" : "兴龙东街",
	"sub_routes_id" : "73001",
	"sub_routes_number" : 1.0
},
{
	"latitude" : 31.505539,
	"longitude" : 104.723181,
	"routes_id" : "94",
	"routes_number" : 1.0,
	"station_id" : "11070523",
	"station_name" : "虹色嘉苑",
	"sub_routes_id" : "94001",
	"sub_routes_number" : 1.0
},
{
	"latitude" : 31.50444,
	"longitude" : 104.723629,
	"routes_id" : "94",
	"routes_number" : 1.0,
	"station_id" : "11070524",
	"station_name" : "虹色嘉苑",
	"sub_routes_id" : "94001",
	"sub_routes_number" : 1.0
},
{
	"latitude" : 31.49646,
	"longitude" : 104.733786,
	"routes_id" : "94,73",
	"routes_number" : 2.0,
	"station_id" : "11070533",
	"station_name" : "高水中街",
	"sub_routes_id" : "94001,73001",
	"sub_routes_number" : 2.0
},
{
	"latitude" : 31.496341,
	"longitude" : 104.733496,
	"routes_id" : "94,73",
	"routes_number" : 2.0,
	"station_id" : "11070534",
	"station_name" : "高水中街",
	"sub_routes_id" : "94001,73001",
	"sub_routes_number" : 2.0
},
{
	"latitude" : 31.569579,
	"longitude" : 104.691091,
	"routes_id" : "7",
	"routes_number" : 1.0,
	"station_id" : "11070544",
	"station_name" : "招呼站",
	"sub_routes_id" : "7001",
	"sub_routes_number" : 1.0
},
{
	"latitude" : 31.523261,
	"longitude" : 104.688553,
	"routes_id" : "73",
	"routes_number" : 1.0,
	"station_id" : "11070553",
	"station_name" : "招呼站",
	"sub_routes_id" : "73001",
	"sub_routes_number" : 1.0
},
{
	"latitude" : 31.523619,
	"longitude" : 104.688166,
	"routes_id" : "73",
	"routes_number" : 1.0,
	"station_id" : "11070554",
	"station_name" : "招呼站",
	"sub_routes_id" : "73001",
	"sub_routes_number" : 1.0
},
{
	"latitude" : 31.527823,
	"longitude" : 104.685319,
	"routes_id" : "73",
	"routes_number" : 1.0,
	"station_id" : "11070563",
	"station_name" : "青义政府",
	"sub_routes_id" : "73001",
	"sub_routes_number" : 1.0
},
{
	"latitude" : 31.527378,
	"longitude" : 104.685501,
	"routes_id" : "73",
	"routes_number" : 1.0,
	"station_id" : "11070564",
	"station_name" : "青义政府",
	"sub_routes_id" : "73001",
	"sub_routes_number" : 1.0
},
{
	"latitude" : 31.53357,
	"longitude" : 104.681199,
	"routes_id" : "73",
	"routes_number" : 1.0,
	"station_id" : "11070573",
	"station_name" : "兴隆村四社",
	"sub_routes_id" : "73001",
	"sub_routes_number" : 1.0
},
{
	"latitude" : 31.533998,
	"longitude" : 104.680791,
	"routes_id" : "73",
	"routes_number" : 1.0,
	"station_id" : "11070574",
	"station_name" : "兴隆村四社",
	"sub_routes_id" : "73001",
	"sub_routes_number" : 1.0
},
{
	"latitude" : 31.563661,
	"longitude" : 104.688185,
	"routes_id" : "73",
	"routes_number" : 1.0,
	"station_id" : "11070584",
	"station_name" : "招呼站（水果市场）",
	"sub_routes_id" : "73001",
	"sub_routes_number" : 1.0
},
{
	"latitude" : 31.480439,
	"longitude" : 104.744471,
	"routes_id" : "58,94,27,546,43",
	"routes_number" : 5.0,
	"station_id" : "11070604",
	"station_name" : "东原大桥",
	"sub_routes_id" : "54601,58001,43001,27001,94001",
	"sub_routes_number" : 5.0
},
{
	"latitude" : 31.570483,
	"longitude" : 104.685516,
	"routes_id" : "7",
	"routes_number" : 1.0,
	"station_id" : "11070613",
	"station_name" : "农资批发市场北门",
	"sub_routes_id" : "7001",
	"sub_routes_number" : 1.0
},
{
	"latitude" : 31.477293,
	"longitude" : 104.74632,
	"routes_id" : "43",
	"routes_number" : 1.0,
	"station_id" : "11070704",
	"station_name" : "水韵滨江",
	"sub_routes_id" : "43001",
	"sub_routes_number" : 1.0
},
{
	"latitude" : 31.455068,
	"longitude" : 104.759401,
	"routes_id" : "66",
	"routes_number" : 1.0,
	"station_id" : "11080043",
	"station_name" : "南河东街",
	"sub_routes_id" : "66002",
	"sub_routes_number" : 1.0
},
{
	"latitude" : 31.455719,
	"longitude" : 104.761636,
	"routes_id" : "66",
	"routes_number" : 1.0,
	"station_id" : "11080054",
	"station_name" : "青年广场",
	"sub_routes_id" : "66002",
	"sub_routes_number" : 1.0
},
{
	"latitude" : 31.453232,
	"longitude" : 104.759353,
	"routes_id" : "66",
	"routes_number" : 1.0,
	"station_id" : "11080064",
	"station_name" : "南河路49号",
	"sub_routes_id" : "66002",
	"sub_routes_number" : 1.0
},
{
	"latitude" : 31.453983,
	"longitude" : 104.749101,
	"routes_id" : "2001",
	"routes_number" : 1.0,
	"station_id" : "11081112",
	"station_name" : "健安街",
	"sub_routes_id" : "20003,20002",
	"sub_routes_number" : 2.0
},
{
	"latitude" : 31.452182,
	"longitude" : 104.749536,
	"routes_id" : "2001",
	"routes_number" : 1.0,
	"station_id" : "11081128",
	"station_name" : "南河体育中心",
	"sub_routes_id" : "20003,20002",
	"sub_routes_number" : 2.0
},
{
	"latitude" : 31.452241,
	"longitude" : 104.754985,
	"routes_id" : "33,1",
	"routes_number" : 2.0,
	"station_id" : "11081131",
	"station_name" : "索桥",
	"sub_routes_id" : "1001,33001",
	"sub_routes_number" : 2.0
},
{
	"latitude" : 31.459765,
	"longitude" : 104.714701,
	"routes_id" : "100,35,328,235,38,60,62,29,40,79",
	"routes_number" : 10.0,
	"station_id" : "11090014",
	"station_name" : "火车客站广场",
	"sub_routes_id" : "40001,79001,29001,100001,32801,35001,23501,62001,62002,62003,38001,60001",
	"sub_routes_number" : 12.0
},
{
	"latitude" : 31.460236,
	"longitude" : 104.712439,
	"routes_id" : "100,35,328,235,60,62,29,40,79",
	"routes_number" : 9.0,
	"station_id" : "11090018",
	"station_name" : "火车客站广场",
	"sub_routes_id" : "40001,79001,29001,100001,32801,35001,23501,62001,62002,62003,60001",
	"sub_routes_number" : 11.0
},
{
	"latitude" : 31.460187,
	"longitude" : 104.709168,
	"routes_id" : "3",
	"routes_number" : 1.0,
	"station_id" : "11090033",
	"station_name" : "荷花中街",
	"sub_routes_id" : "3001",
	"sub_routes_number" : 1.0
},
{
	"latitude" : 31.460153,
	"longitude" : 104.710376,
	"routes_id" : "10",
	"routes_number" : 1.0,
	"station_id" : "11090061",
	"station_name" : "花园市场",
	"sub_routes_id" : "10001,10002",
	"sub_routes_number" : 2.0
},
{
	"latitude" : 31.459115,
	"longitude" : 104.710131,
	"routes_id" : "10",
	"routes_number" : 1.0,
	"station_id" : "11090068",
	"station_name" : "花园市场",
	"sub_routes_id" : "10001,10002",
	"sub_routes_number" : 2.0
},
{
	"latitude" : 31.457273,
	"longitude" : 104.715941,
	"routes_id" : "2001,806,74,40,79,601",
	"routes_number" : 6.0,
	"station_id" : "11100011",
	"station_name" : "花园南街口",
	"sub_routes_id" : "20003,806001,74001,40001,79001,60101,20002",
	"sub_routes_number" : 7.0
},
{
	"latitude" : 31.45501,
	"longitude" : 104.716569,
	"routes_id" : "2001,806,40,79,601",
	"routes_number" : 5.0,
	"station_id" : "11100012",
	"station_name" : "花园南街口",
	"sub_routes_id" : "20003,806001,40001,79001,60101,20002",
	"sub_routes_number" : 6.0
},
{
	"latitude" : 31.45708,
	"longitude" : 104.716615,
	"routes_id" : "72,12",
	"routes_number" : 2.0,
	"station_id" : "11100033",
	"station_name" : "花园南街",
	"sub_routes_id" : "12003,72001,12001",
	"sub_routes_number" : 3.0
},
{
	"latitude" : 31.45716,
	"longitude" : 104.717665,
	"routes_id" : "72,12",
	"routes_number" : 2.0,
	"station_id" : "11100034",
	"station_name" : "花园南街",
	"sub_routes_id" : "12003,72001,12001",
	"sub_routes_number" : 3.0
},
{
	"latitude" : 31.456632,
	"longitude" : 104.712039,
	"routes_id" : "72,12,57",
	"routes_number" : 3.0,
	"station_id" : "11100041",
	"station_name" : "荷花东街",
	"sub_routes_id" : "12003,57001,72001,12001",
	"sub_routes_number" : 4.0
},
{
	"latitude" : 31.456921,
	"longitude" : 104.711963,
	"routes_id" : "72,57",
	"routes_number" : 2.0,
	"station_id" : "11100042",
	"station_name" : "荷花东街",
	"sub_routes_id" : "57002,72001",
	"sub_routes_number" : 2.0
},
{
	"latitude" : 31.455791,
	"longitude" : 104.710291,
	"routes_id" : "805,74,57",
	"routes_number" : 3.0,
	"station_id" : "11100053",
	"station_name" : "东辰小学",
	"sub_routes_id" : "57001,74001,805001",
	"sub_routes_number" : 3.0
},
{
	"latitude" : 31.455961,
	"longitude" : 104.710554,
	"routes_id" : "805,74,57",
	"routes_number" : 3.0,
	"station_id" : "11100054",
	"station_name" : "东辰小学",
	"sub_routes_id" : "57002,74001,805001",
	"sub_routes_number" : 3.0
},
{
	"latitude" : 31.457803,
	"longitude" : 104.70681,
	"routes_id" : "80",
	"routes_number" : 1.0,
	"station_id" : "11100071",
	"station_name" : "东辰宜家美",
	"sub_routes_id" : "80001",
	"sub_routes_number" : 1.0
},
{
	"latitude" : 31.458618,
	"longitude" : 104.70787,
	"routes_id" : "80",
	"routes_number" : 1.0,
	"station_id" : "11100072",
	"station_name" : "东辰宜家美",
	"sub_routes_id" : "80001",
	"sub_routes_number" : 1.0
},
{
	"latitude" : 31.466071,
	"longitude" : 104.740581,
	"routes_id" : "17,53",
	"routes_number" : 2.0,
	"station_id" : "11110011",
	"station_name" : "新世界百货",
	"sub_routes_id" : "17002,5301",
	"sub_routes_number" : 2.0
},
{
	"latitude" : 31.466935,
	"longitude" : 104.740563,
	"routes_id" : "11,39,27,17,53,68",
	"routes_number" : 6.0,
	"station_id" : "11110012",
	"station_name" : "新世界百货",
	"sub_routes_id" : "17001,68001,39001,11001,11002,27001,5301",
	"sub_routes_number" : 7.0
},
{
	"latitude" : 31.467484,
	"longitude" : 104.740578,
	"routes_id" : "6,48,546",
	"routes_number" : 3.0,
	"station_id" : "11110021",
	"station_name" : "富乐路",
	"sub_routes_id" : "54601,48001,6001",
	"sub_routes_number" : 3.0
},
{
	"latitude" : 31.469166,
	"longitude" : 104.740528,
	"routes_id" : "6,95,48,39,43",
	"routes_number" : 5.0,
	"station_id" : "11110022",
	"station_name" : "富乐路",
	"sub_routes_id" : "95001,39001,43001,48001,6001",
	"sub_routes_number" : 5.0
},
{
	"latitude" : 31.468683,
	"longitude" : 104.740706,
	"routes_id" : "546",
	"routes_number" : 1.0,
	"station_id" : "11110026",
	"station_name" : "富乐路",
	"sub_routes_id" : "54601",
	"sub_routes_number" : 1.0
},
{
	"latitude" : 31.494332,
	"longitude" : 104.687854,
	"routes_id" : "45,37,85,601",
	"routes_number" : 4.0,
	"station_id" : "11120011",
	"station_name" : "天府学院",
	"sub_routes_id" : "45001,60101,37001,85001",
	"sub_routes_number" : 4.0
},
{
	"latitude" : 31.495884,
	"longitude" : 104.688262,
	"routes_id" : "45,37,85,601",
	"routes_number" : 4.0,
	"station_id" : "11120012",
	"station_name" : "天府学院",
	"sub_routes_id" : "45001,60101,37001,85001",
	"sub_routes_number" : 4.0
},
{
	"latitude" : 31.492346,
	"longitude" : 104.686483,
	"routes_id" : "85,77",
	"routes_number" : 2.0,
	"station_id" : "11120021",
	"station_name" : "天府学院",
	"sub_routes_id" : "85001,77001",
	"sub_routes_number" : 2.0
},
{
	"latitude" : 31.491748,
	"longitude" : 104.686541,
	"routes_id" : "85,77",
	"routes_number" : 2.0,
	"station_id" : "11120022",
	"station_name" : "天府学院",
	"sub_routes_id" : "85001,77001",
	"sub_routes_number" : 2.0
},
{
	"latitude" : 31.491735,
	"longitude" : 104.679069,
	"routes_id" : "85",
	"routes_number" : 1.0,
	"station_id" : "11120031",
	"station_name" : "创业大道路口",
	"sub_routes_id" : "85001",
	"sub_routes_number" : 1.0
},
{
	"latitude" : 31.491315,
	"longitude" : 104.678208,
	"routes_id" : "85",
	"routes_number" : 1.0,
	"station_id" : "11120032",
	"station_name" : "创业大道路口",
	"sub_routes_id" : "85001",
	"sub_routes_number" : 1.0
},
{
	"latitude" : 31.482243,
	"longitude" : 104.684947,
	"routes_id" : "37",
	"routes_number" : 1.0,
	"station_id" : "11120051",
	"station_name" : "招呼站",
	"sub_routes_id" : "37001",
	"sub_routes_number" : 1.0
},
{
	"latitude" : 31.482582,
	"longitude" : 104.684995,
	"routes_id" : "37",
	"routes_number" : 1.0,
	"station_id" : "11120052",
	"station_name" : "招呼站",
	"sub_routes_id" : "37001",
	"sub_routes_number" : 1.0
},
{
	"latitude" : 31.484633,
	"longitude" : 104.689679,
	"routes_id" : "37",
	"routes_number" : 1.0,
	"station_id" : "11120061",
	"station_name" : "园兴东街",
	"sub_routes_id" : "37001",
	"sub_routes_number" : 1.0
},
{
	"latitude" : 31.485768,
	"longitude" : 104.690663,
	"routes_id" : "37",
	"routes_number" : 1.0,
	"station_id" : "11120062",
	"station_name" : "园兴东街",
	"sub_routes_id" : "37001",
	"sub_routes_number" : 1.0
},
{
	"latitude" : 31.483626,
	"longitude" : 104.693873,
	"routes_id" : "77",
	"routes_number" : 1.0,
	"station_id" : "11120071",
	"station_name" : "长兴太阳城",
	"sub_routes_id" : "77001",
	"sub_routes_number" : 1.0
},
{
	"latitude" : 31.481278,
	"longitude" : 104.692924,
	"routes_id" : "77",
	"routes_number" : 1.0,
	"station_id" : "11120081",
	"station_name" : "科创园管委会",
	"sub_routes_id" : "77001",
	"sub_routes_number" : 1.0
},
{
	"latitude" : 31.482027,
	"longitude" : 104.692007,
	"routes_id" : "77",
	"routes_number" : 1.0,
	"station_id" : "11120082",
	"station_name" : "科创园管委会",
	"sub_routes_id" : "77001",
	"sub_routes_number" : 1.0
},
{
	"latitude" : 31.490941,
	"longitude" : 104.691972,
	"routes_id" : "77",
	"routes_number" : 1.0,
	"station_id" : "11120113",
	"station_name" : "八角村一社",
	"sub_routes_id" : "77001",
	"sub_routes_number" : 1.0
},
{
	"latitude" : 31.490689,
	"longitude" : 104.692978,
	"routes_id" : "77",
	"routes_number" : 1.0,
	"station_id" : "11120114",
	"station_name" : "八角村一社",
	"sub_routes_id" : "77001",
	"sub_routes_number" : 1.0
},
{
	"latitude" : 31.489479,
	"longitude" : 104.695672,
	"routes_id" : "77",
	"routes_number" : 1.0,
	"station_id" : "11120123",
	"station_name" : "上马新村",
	"sub_routes_id" : "77001",
	"sub_routes_number" : 1.0
},
{
	"latitude" : 31.488766,
	"longitude" : 104.697104,
	"routes_id" : "77",
	"routes_number" : 1.0,
	"station_id" : "11120124",
	"station_name" : "上马新村",
	"sub_routes_id" : "77001",
	"sub_routes_number" : 1.0
},
{
	"latitude" : 31.488903,
	"longitude" : 104.686841,
	"routes_id" : "37,601,91",
	"routes_number" : 3.0,
	"station_id" : "11120133",
	"station_name" : "创业大道中段",
	"sub_routes_id" : "60101,37001,91001",
	"sub_routes_number" : 3.0
},
{
	"latitude" : 31.488893,
	"longitude" : 104.687536,
	"routes_id" : "37,601,91",
	"routes_number" : 3.0,
	"station_id" : "11120134",
	"station_name" : "创业大道中段",
	"sub_routes_id" : "60101,37001,91001",
	"sub_routes_number" : 3.0
},
{
	"latitude" : 31.490329,
	"longitude" : 104.678068,
	"routes_id" : "37,77",
	"routes_number" : 2.0,
	"station_id" : "11120153",
	"station_name" : "八角北路",
	"sub_routes_id" : "37001,77001",
	"sub_routes_number" : 2.0
},
{
	"latitude" : 31.489697,
	"longitude" : 104.679171,
	"routes_id" : "37,77",
	"routes_number" : 2.0,
	"station_id" : "11120154",
	"station_name" : "八角北路",
	"sub_routes_id" : "37001,77001",
	"sub_routes_number" : 2.0
},
{
	"latitude" : 31.485561,
	"longitude" : 104.680797,
	"routes_id" : "37",
	"routes_number" : 1.0,
	"station_id" : "11120163",
	"station_name" : "柏杨街",
	"sub_routes_id" : "37001",
	"sub_routes_number" : 1.0
},
{
	"latitude" : 31.487485,
	"longitude" : 104.680213,
	"routes_id" : "37",
	"routes_number" : 1.0,
	"station_id" : "11120164",
	"station_name" : "柏杨街",
	"sub_routes_id" : "37001",
	"sub_routes_number" : 1.0
},
{
	"latitude" : 31.483103,
	"longitude" : 104.683406,
	"routes_id" : "45,37",
	"routes_number" : 2.0,
	"station_id" : "11120173",
	"station_name" : "八角村三社",
	"sub_routes_id" : "45001,37001",
	"sub_routes_number" : 2.0
},
{
	"latitude" : 31.483359,
	"longitude" : 104.682947,
	"routes_id" : "45,37",
	"routes_number" : 2.0,
	"station_id" : "11120174",
	"station_name" : "八角村三社",
	"sub_routes_id" : "45001,37001",
	"sub_routes_number" : 2.0
},
{
	"latitude" : 31.486658,
	"longitude" : 104.692039,
	"routes_id" : "601,91",
	"routes_number" : 2.0,
	"station_id" : "11120183",
	"station_name" : "石油公司",
	"sub_routes_id" : "60101,91001",
	"sub_routes_number" : 2.0
},
{
	"latitude" : 31.485797,
	"longitude" : 104.694383,
	"routes_id" : "601,91",
	"routes_number" : 2.0,
	"station_id" : "11120184",
	"station_name" : "石油公司",
	"sub_routes_id" : "60101,91001",
	"sub_routes_number" : 2.0
},
{
	"latitude" : 31.507708,
	"longitude" : 104.657355,
	"routes_id" : "45,601,91",
	"routes_number" : 3.0,
	"station_id" : "11120191",
	"station_name" : "大包梁",
	"sub_routes_id" : "45001,60101,91001",
	"sub_routes_number" : 3.0
},
{
	"latitude" : 31.509826,
	"longitude" : 104.654651,
	"routes_id" : "45,601,91",
	"routes_number" : 3.0,
	"station_id" : "11120192",
	"station_name" : "大包梁",
	"sub_routes_id" : "45001,60101,91001",
	"sub_routes_number" : 3.0
},
{
	"latitude" : 31.466128,
	"longitude" : 104.721873,
	"routes_id" : "45,77",
	"routes_number" : 2.0,
	"station_id" : "11120193",
	"station_name" : "绵阳中学本部",
	"sub_routes_id" : "45001,77001",
	"sub_routes_number" : 2.0
},
{
	"latitude" : 31.465801,
	"longitude" : 104.722511,
	"routes_id" : "45,77",
	"routes_number" : 2.0,
	"station_id" : "11120194",
	"station_name" : "绵阳中学本部",
	"sub_routes_id" : "45001,77001",
	"sub_routes_number" : 2.0
},
{
	"latitude" : 31.51222,
	"longitude" : 104.651958,
	"routes_id" : "45,601,91",
	"routes_number" : 3.0,
	"station_id" : "11120201",
	"station_name" : "科技城创新中心",
	"sub_routes_id" : "45001,60101,91001",
	"sub_routes_number" : 3.0
},
{
	"latitude" : 31.51497,
	"longitude" : 104.645906,
	"routes_id" : "45,601,91",
	"routes_number" : 3.0,
	"station_id" : "11120202",
	"station_name" : "科技城创新中心",
	"sub_routes_id" : "45001,60101,91001",
	"sub_routes_number" : 3.0
},
{
	"latitude" : 31.518483,
	"longitude" : 104.646003,
	"routes_id" : "91",
	"routes_number" : 1.0,
	"station_id" : "11120203",
	"station_name" : "二中金家林校区",
	"sub_routes_id" : "91001",
	"sub_routes_number" : 1.0
},
{
	"latitude" : 31.518846,
	"longitude" : 104.646231,
	"routes_id" : "91",
	"routes_number" : 1.0,
	"station_id" : "11120204",
	"station_name" : "二中金家林校区",
	"sub_routes_id" : "91001",
	"sub_routes_number" : 1.0
},
{
	"latitude" : 31.516255,
	"longitude" : 104.643891,
	"routes_id" : "45,601",
	"routes_number" : 2.0,
	"station_id" : "11120211",
	"station_name" : "金家林居民点",
	"sub_routes_id" : "45001,60101",
	"sub_routes_number" : 2.0
},
{
	"latitude" : 31.515066,
	"longitude" : 104.646496,
	"routes_id" : "45,601",
	"routes_number" : 2.0,
	"station_id" : "11120212",
	"station_name" : "金家林居民点",
	"sub_routes_id" : "45001,60101",
	"sub_routes_number" : 2.0
},
{
	"latitude" : 31.467668,
	"longitude" : 104.717821,
	"routes_id" : "45,77",
	"routes_number" : 2.0,
	"station_id" : "11120213",
	"station_name" : "绵中高三校区",
	"sub_routes_id" : "45001,77001",
	"sub_routes_number" : 2.0
},
{
	"latitude" : 31.467751,
	"longitude" : 104.718188,
	"routes_id" : "45,77",
	"routes_number" : 2.0,
	"station_id" : "11120214",
	"station_name" : "绵中高三校区",
	"sub_routes_id" : "45001,77001",
	"sub_routes_number" : 2.0
},
{
	"latitude" : 31.491145,
	"longitude" : 104.673523,
	"routes_id" : "91",
	"routes_number" : 1.0,
	"station_id" : "11120221",
	"station_name" : "八角居民区",
	"sub_routes_id" : "91001",
	"sub_routes_number" : 1.0
},
{
	"latitude" : 31.491658,
	"longitude" : 104.673701,
	"routes_id" : "77,91",
	"routes_number" : 2.0,
	"station_id" : "11120222",
	"station_name" : "八角居民区",
	"sub_routes_id" : "77001,91001",
	"sub_routes_number" : 2.0
},
{
	"latitude" : 31.467571,
	"longitude" : 104.715111,
	"routes_id" : "45,77",
	"routes_number" : 2.0,
	"station_id" : "11120223",
	"station_name" : "元通中街",
	"sub_routes_id" : "45001,77001",
	"sub_routes_number" : 2.0
},
{
	"latitude" : 31.467658,
	"longitude" : 104.715841,
	"routes_id" : "45,77",
	"routes_number" : 2.0,
	"station_id" : "11120224",
	"station_name" : "元通中街",
	"sub_routes_id" : "45001,77001",
	"sub_routes_number" : 2.0
},
{
	"latitude" : 31.491373,
	"longitude" : 104.676161,
	"routes_id" : "91",
	"routes_number" : 1.0,
	"station_id" : "11120231",
	"station_name" : "招呼站（91）",
	"sub_routes_id" : "91001",
	"sub_routes_number" : 1.0
},
{
	"latitude" : 31.491013,
	"longitude" : 104.677174,
	"routes_id" : "91",
	"routes_number" : 1.0,
	"station_id" : "11120232",
	"station_name" : "招呼站（91）",
	"sub_routes_id" : "91001",
	"sub_routes_number" : 1.0
},
{
	"latitude" : 31.493705,
	"longitude" : 104.667384,
	"routes_id" : "91",
	"routes_number" : 1.0,
	"station_id" : "11120233",
	"station_name" : "九洲技工学校",
	"sub_routes_id" : "91001",
	"sub_routes_number" : 1.0
},
{
	"latitude" : 31.491971,
	"longitude" : 104.668408,
	"routes_id" : "77,91",
	"routes_number" : 2.0,
	"station_id" : "11120234",
	"station_name" : "九洲技工学校",
	"sub_routes_id" : "77001,91001",
	"sub_routes_number" : 2.0
},
{
	"latitude" : 31.499147,
	"longitude" : 104.667689,
	"routes_id" : "77,91",
	"routes_number" : 2.0,
	"station_id" : "11120241",
	"station_name" : "九洲西门",
	"sub_routes_id" : "77001,91001",
	"sub_routes_number" : 2.0
},
{
	"latitude" : 31.499147,
	"longitude" : 104.667689,
	"routes_id" : "91",
	"routes_number" : 1.0,
	"station_id" : "11120242",
	"station_name" : "九洲西门",
	"sub_routes_id" : "91001",
	"sub_routes_number" : 1.0
},
{
	"latitude" : 31.493595,
	"longitude" : 104.667576,
	"routes_id" : "77",
	"routes_number" : 1.0,
	"station_id" : "11120244",
	"station_name" : "九洲技工学校",
	"sub_routes_id" : "77001",
	"sub_routes_number" : 1.0
},
{
	"latitude" : 31.468579,
	"longitude" : 104.713301,
	"routes_id" : "45,77",
	"routes_number" : 2.0,
	"station_id" : "11120253",
	"station_name" : "元通村二组",
	"sub_routes_id" : "45001,77001",
	"sub_routes_number" : 2.0
},
{
	"latitude" : 31.468333,
	"longitude" : 104.713733,
	"routes_id" : "45,77",
	"routes_number" : 2.0,
	"station_id" : "11120254",
	"station_name" : "元通村二组",
	"sub_routes_id" : "45001,77001",
	"sub_routes_number" : 2.0
},
{
	"latitude" : 31.522348,
	"longitude" : 104.635183,
	"routes_id" : "601",
	"routes_number" : 1.0,
	"station_id" : "11120261",
	"station_name" : "万人区招呼站",
	"sub_routes_id" : "60101",
	"sub_routes_number" : 1.0
},
{
	"latitude" : 31.520863,
	"longitude" : 104.637913,
	"routes_id" : "601",
	"routes_number" : 1.0,
	"station_id" : "11120262",
	"station_name" : "万人区招呼站",
	"sub_routes_id" : "60101",
	"sub_routes_number" : 1.0
},
{
	"latitude" : 31.472983,
	"longitude" : 104.709541,
	"routes_id" : "45,77",
	"routes_number" : 2.0,
	"station_id" : "11120263",
	"station_name" : "罗家湾路口",
	"sub_routes_id" : "45001,77001",
	"sub_routes_number" : 2.0
},
{
	"latitude" : 31.47259,
	"longitude" : 104.709725,
	"routes_id" : "45,77",
	"routes_number" : 2.0,
	"station_id" : "11120264",
	"station_name" : "罗家湾路口",
	"sub_routes_id" : "45001,77001",
	"sub_routes_number" : 2.0
},
{
	"latitude" : 31.533125,
	"longitude" : 104.622116,
	"routes_id" : "601",
	"routes_number" : 1.0,
	"station_id" : "11120271",
	"station_name" : "石岭村五社",
	"sub_routes_id" : "60101",
	"sub_routes_number" : 1.0
},
{
	"latitude" : 31.532491,
	"longitude" : 104.625244,
	"routes_id" : "601",
	"routes_number" : 1.0,
	"station_id" : "11120272",
	"station_name" : "石岭村五社",
	"sub_routes_id" : "60101",
	"sub_routes_number" : 1.0
},
{
	"latitude" : 31.482321,
	"longitude" : 104.695878,
	"routes_id" : "45",
	"routes_number" : 1.0,
	"station_id" : "11120273",
	"station_name" : "科创区博雅学校",
	"sub_routes_id" : "45001",
	"sub_routes_number" : 1.0
},
{
	"latitude" : 31.482165,
	"longitude" : 104.696258,
	"routes_id" : "45",
	"routes_number" : 1.0,
	"station_id" : "11120274",
	"station_name" : "科创区博雅学校",
	"sub_routes_id" : "45001",
	"sub_routes_number" : 1.0
},
{
	"latitude" : 31.535821,
	"longitude" : 104.609026,
	"routes_id" : "601",
	"routes_number" : 1.0,
	"station_id" : "11120281",
	"station_name" : "石岭村十一社",
	"sub_routes_id" : "60101",
	"sub_routes_number" : 1.0
},
{
	"latitude" : 31.535778,
	"longitude" : 104.610026,
	"routes_id" : "601",
	"routes_number" : 1.0,
	"station_id" : "11120282",
	"station_name" : "石岭村十一社",
	"sub_routes_id" : "60101",
	"sub_routes_number" : 1.0
},
{
	"latitude" : 31.479928,
	"longitude" : 104.688576,
	"routes_id" : "45",
	"routes_number" : 1.0,
	"station_id" : "11120283",
	"station_name" : "八角南路",
	"sub_routes_id" : "45001",
	"sub_routes_number" : 1.0
},
{
	"latitude" : 31.47968,
	"longitude" : 104.689091,
	"routes_id" : "45",
	"routes_number" : 1.0,
	"station_id" : "11120284",
	"station_name" : "八角南路",
	"sub_routes_id" : "45001",
	"sub_routes_number" : 1.0
},
{
	"latitude" : 31.537731,
	"longitude" : 104.600781,
	"routes_id" : "601",
	"routes_number" : 1.0,
	"station_id" : "11120291",
	"station_name" : "先岭村七社",
	"sub_routes_id" : "60101",
	"sub_routes_number" : 1.0
},
{
	"latitude" : 31.537861,
	"longitude" : 104.600826,
	"routes_id" : "601",
	"routes_number" : 1.0,
	"station_id" : "11120292",
	"station_name" : "先岭村七社",
	"sub_routes_id" : "60101",
	"sub_routes_number" : 1.0
},
{
	"latitude" : 31.539268,
	"longitude" : 104.577288,
	"routes_id" : "601",
	"routes_number" : 1.0,
	"station_id" : "11120301",
	"station_name" : "柏洋村",
	"sub_routes_id" : "60101",
	"sub_routes_number" : 1.0
},
{
	"latitude" : 31.539665,
	"longitude" : 104.577981,
	"routes_id" : "601",
	"routes_number" : 1.0,
	"station_id" : "11120302",
	"station_name" : "柏洋村",
	"sub_routes_id" : "60101",
	"sub_routes_number" : 1.0
},
{
	"latitude" : 31.478946,
	"longitude" : 104.703478,
	"routes_id" : "77,91",
	"routes_number" : 2.0,
	"station_id" : "11120311",
	"station_name" : "园艺小学",
	"sub_routes_id" : "77001,91001",
	"sub_routes_number" : 2.0
},
{
	"latitude" : 31.478704,
	"longitude" : 104.703755,
	"routes_id" : "77,91",
	"routes_number" : 2.0,
	"station_id" : "11120312",
	"station_name" : "园艺小学",
	"sub_routes_id" : "77001,91001",
	"sub_routes_number" : 2.0
},
{
	"latitude" : 31.475128,
	"longitude" : 104.706504,
	"routes_id" : "45,91",
	"routes_number" : 2.0,
	"station_id" : "11120321",
	"station_name" : "元通村三组",
	"sub_routes_id" : "45001,91001",
	"sub_routes_number" : 2.0
},
{
	"latitude" : 31.474596,
	"longitude" : 104.705938,
	"routes_id" : "45,91",
	"routes_number" : 2.0,
	"station_id" : "11120322",
	"station_name" : "元通村三组",
	"sub_routes_id" : "45001,91001",
	"sub_routes_number" : 2.0
},
{
	"latitude" : 31.474706,
	"longitude" : 104.702403,
	"routes_id" : "45,91",
	"routes_number" : 2.0,
	"station_id" : "11120331",
	"station_name" : "元通村村委会",
	"sub_routes_id" : "45001,91001",
	"sub_routes_number" : 2.0
},
{
	"latitude" : 31.475721,
	"longitude" : 104.701511,
	"routes_id" : "45,91",
	"routes_number" : 2.0,
	"station_id" : "11120332",
	"station_name" : "元通村村委会",
	"sub_routes_id" : "45001,91001",
	"sub_routes_number" : 2.0
},
{
	"latitude" : 31.477188,
	"longitude" : 104.700551,
	"routes_id" : "45,91",
	"routes_number" : 2.0,
	"station_id" : "11120341",
	"station_name" : "元通村",
	"sub_routes_id" : "45001,91001",
	"sub_routes_number" : 2.0
},
{
	"latitude" : 31.477848,
	"longitude" : 104.700193,
	"routes_id" : "45,91",
	"routes_number" : 2.0,
	"station_id" : "11120342",
	"station_name" : "元通村",
	"sub_routes_id" : "45001,91001",
	"sub_routes_number" : 2.0
},
{
	"latitude" : 31.482094,
	"longitude" : 104.699328,
	"routes_id" : "77,91",
	"routes_number" : 2.0,
	"station_id" : "11120351",
	"station_name" : "招呼站",
	"sub_routes_id" : "77001,91001",
	"sub_routes_number" : 2.0
},